"Urban Area Name","Country","Urban landa c 2000 (sq. km.)","Urban landa c 2010 (sq. km.)","Increase in urban land 2000 - 2010 (sq. km.)","Average annual rate of increase in urban land 2000 - 2010 (%)","Urban populationc c 2000 (persons)","Urban populationc c 2010 (persons)","Change in urban population 2000 - 2010 (persons)","Average annual rate of change of urban population (%)","Average urban population density c2000 (persons/ sq. km.)","Average urban population density c2010 (persons/ sq. km.)","Urban expansion per additional urban inhabitant (sq. m./ person)","Administrative boundary arrangementd","lon","lat"
"Pearl River Delta urban area","China",4477.5625,6969,2491.4375,4.52324416589081,26835836,41757816,14921980,4.52068918859908,5993.40288382351,5991.93801119242,166.964270157178,"Fragmented",113.6216667,22.7694444
"Tokyo urban area","Japan",5434,5569.6875,135.6875,0.246938765081134,27695526,31788261,4092735,1.38780368342623,5096.71071034229,5707.3688604612,33.153258151334,"Fragmented",139.6917064,35.6894875
"Shanghai urban area","China",1605.1875,3482,1876.8125,8.05137547995283,14020969,24196318,10175349,5.60807475101161,8734.78581162637,6948.97128087306,184.446990466863,"Fragmented",121.473701,31.230416
"Jakarta urban area","Indonesia",1338.25,1600.1875,261.9375,1.80365304003401,16291976,23431674,7139698,3.70100265616296,12174.0900429666,14643.0802640316,36.6874761369458,"Fragmented",106.822745,-6.1744651
"Beijing urban area","China",1826.875,2716.0625,889.1875,4.04544994944295,10754014,16707094,5953080,4.50402839848975,5886.56257269928,6151.21853786502,149.365958461838,"Fragmented",116.407395,39.904211
"Manila urban area","Philippines",1024.0625,1275,250.9375,2.21588005685403,12202314,16521948,4319634,3.07703211152806,11915.5949954226,12958.3905882353,58.0923059685149,"Fragmented",120.9842195,14.5995124
"Seoul urban area","South Korea",1067.25,1191.5625,124.3125,1.1078944391524,14277211,15898238,1621027,1.08124016260869,13377.5694542047,13342.34503016,76.6874950263012,"Fragmented",126.9779692,37.566535
"Osaka urban area","Japan",2047.1875,2072.5625,25.375,0.123264552817472,10637811,12273967,1636156,1.4409407455335,5196.30517478248,5922.12152830132,15.5089123531008,"Fragmented",135.5021651,34.6937378
"Bangkok urban area","Thailand",1909.8125,2125.9375,216.125,1.07784546776544,7825880,9555372,1729492,2.01674004579939,4097.72163497726,4494.66270762899,124.964440425281,"Fragmented",100.5017651,13.7563309
"Tianjin urban area","China",1126.75,1654.8125,528.0625,3.91832132135118,6266363,8788168,2521805,3.43994480458943,5561.4493010872,5310.67296143823,209.398625191083,"Fragmented",117.200983,39.084158
"Shantou urban area","China",980.375,1207.3125,226.9375,2.10399781024818,6692103,8458895,1766792,2.37056535499411,6826.06451612903,7006.38401408086,128.446076278362,"Fragmented",116.681972,23.354091
"Chengdu urban area","China",605.0625,1068.875,463.8125,5.85531484147726,4636284,8323450,3687166,6.02623366437309,7662.48775952897,7787.1126184072,125.791054701633,"Fragmented",104.066801,30.572816
"Ho Chi Minh City urban area","Vietnam",549,814.625,265.625,4.02519509214238,5309190,7761835,2452645,3.87083284911342,9670.65573770492,9528.10802516495,108.301445989941,"Fragmented",106.6296638,10.8230989
"Nagoya urban area","Japan",1772.0625,1882,109.9375,0.603724300518207,6368802,7426344,1057542,1.54808351777411,3594.00529044546,3945.98512221041,103.955682138393,"Fragmented",136.906398,35.1814464
"Wuhan urban area","China",713.125,945.125,232,2.85664609536109,5474500,7342134,1867634,2.97879001718861,7676.77475898335,7768.42639862452,124.221341012211,"Fragmented",114.305393,30.593099
"Hong Kong SAR urban area","China",200.5625,218.625,18.0625,0.8660488348893,6665000,7024200,359200,0.526293846988309,33231.5363041446,32128.9879931389,50.2853563474387,"Contained",114.109497,22.396428
"Bandung urban area","Indonesia",433.4375,511.875,78.4375,1.67723876699932,4797409,6946592,2149183,3.77112012848798,11068.2832011536,13570.8757020757,36.4964267817119,"Spillover",107.6191228,-6.9174639
"Shenyang urban area","China",815.75,1034.75,219,2.40657356389265,5842383,6904495,1062112,1.68436702903045,7161.9773214833,6672.62140613675,206.192943870326,"Fragmented",123.431472,41.805699
"Taipei City urban area","Taiwan",477.125,587.1875,110.0625,2.09734836208912,6203242,6640562,437320,0.683571153334408,13001.2931621692,11309.099733901,251.674974846794,"Fragmented",121.5654177,25.0329694
"Hangzhou urban area","China",518,1318.3125,800.3125,9.79153601437286,3464101,6386447,2922346,6.30822738342389,6687.45366795367,4844.41056274593,273.859597734149,"Spillover",120.15507,30.274085
"Surabaya urban area","Indonesia",644.3125,725.875,81.5625,1.19907157706945,4395779,6104808,1709029,3.33884803849644,6822.43321369677,8410.27449629757,47.7244681044031,"Fragmented",112.7520883,-7.2574719
"Kuala Lumpur urban area","Malaysia",1540.5625,1739.25,198.6875,1.2204512232518,3972896,5750078,1777182,3.76637707738033,2578.86064343381,3306.0675578554,111.799185452025,"Fragmented",101.686855,3.139003
"Xi'an urban area","China",475.5625,735.375,259.8125,4.45521468259919,4187660,5736306,1548646,3.19676651792179,8805.69851491655,7800.51810300867,167.767520789128,"Fragmented",108.93977,34.341575
"Ha Noi urban area","Vietnam",584.3125,850.5625,266.25,3.82599586907092,3534648,5642882,2108234,4.78894785289419,6049.24248582736,6634.29436402381,126.290535111378,"Fragmented",105.8341598,21.0277644
"Chongqing urban area","China",327.625,592.625,265,6.10608568150221,3347836,5035794,1687958,4.16705310179228,10218.4998092331,8497.43767137735,156.994427586468,"Fragmented",106.551556,29.56301
"Quanzhou urban area","China",642.9375,924,281.0625,3.69321057133916,3451403,4789766,1338363,3.33129267702697,5368.17808885001,5183.72943722944,210.004684827659,"Fragmented",118.675676,24.874132
"Nanjing urban area","China",240.5,448.25,207.75,6.42423124928218,2837423,4505328,1667905,4.73220157923876,11798.0166320166,10050.9269380926,124.557453811818,"Fragmented",118.796877,32.060255
"Xiamen urban area","China",493.4375,777.25,283.8125,4.6484639109553,2342286,4267814,1925528,6.18338257828609,4746.87473084231,5490.91540688324,147.394636691858,"Fragmented",118.089425,24.479834
"Taiyuan urban area","China",560.9375,727.8125,166.875,2.63854894522206,3162224,4243100,1080876,2.98383577115675,5637.39097493036,5829.93559467583,154.388662529282,"Fragmented",112.548879,37.87059
"Qingdao urban area","China",689.875,804,114.125,1.54266659933845,3253798,4163504,909706,2.49598179271522,4716.50371444102,5178.48756218906,125.452618758148,"Fragmented",120.382609,36.067108
"Medan urban area","Indonesia",437.5,455.625,18.125,0.406758997569593,2909037,3929132,1020095,3.05159959865635,6649.22742857143,8623.60932784636,17.767952984771,"Fragmented",98.6722227,3.5951956
"Harbin urban area","China",445.9375,532.5,86.5625,1.78987047440589,2842427,3809061,966634,2.97050929674973,6374.047932726,7153.1661971831,89.5504399803855,"Fragmented",126.534967,45.803775
"Zhengzhou urban area","China",243.6875,404.25,160.5625,5.19174936720052,1993042,3805762,1812720,6.6823361687803,8178.67966145165,9414.37724180581,88.5754556688292,"Fragmented",113.625328,34.746611
"Changsha urban area","China",249.375,444,194.625,5.93830151472978,2233013,3680654,1447641,5.12436227296477,8954.4380952381,8289.76126126126,134.442862560538,"Fragmented",112.938814,28.228209
"Hefei urban area","China",217.3125,405.5,188.1875,6.43650736279922,1677081,3623909,1946828,8.00959173221705,7717.37014667817,8936.89025893958,96.6636497934075,"Spillover",117.227219,31.820592
"Anshan urban area","China",718.0625,847.75,129.6875,1.67415112315994,3242167,3494160,251993,0.751319044404481,4515.15989207068,4121.68681804777,514.647232264388,"Fragmented",122.994329,41.108647
"Dalian urban area","China",493.25,550.3125,57.0625,1.10071531944963,2737479,3488541,751062,2.4540907706524,5549.88139888495,6339.2,75.9757516689701,"Fragmented",121.614682,38.914003
"Changchun urban area","China",613.5625,767,153.4375,2.25714321552872,2489821,3477619,987798,3.39782120928754,4057.97453397168,4534.05345501956,155.332871700489,"Spillover",125.323544,43.817072
"Yangon City urban area","Myanmar",370.75,389.5625,18.8125,0.496190302538174,2637028,3416962,779934,2.62485128538503,7112.68509777478,8771.28060324082,24.1206307200353,"Fragmented",96.195132,16.8660694
"Singapore urban area","Singapore",337.25,403.5,66.25,1.80970008207722,2539073,3412239,873166,2.99981045821432,7528.75611564122,8456.60223048327,75.8733161850095,"Contained",103.819836,1.352083
"Shijiazhuang urban area","China",446.625,495.875,49.25,1.05153580873314,2606693,3384804,778111,2.64655162631249,5836.42429331094,6825.92185530628,63.2943114799817,"Fragmented",114.51486,38.042307
"Fuzhou urban area","China",368.25,524.5,156.25,3.60012363756907,2421588,3380510,958922,3.39230010434708,6575.93482688391,6445.204957102,162.943388513351,"Fragmented",119.296494,26.074508
"Kunming urban area","China",307.375,445,137.625,3.76936207940572,2295856,3158163,862307,3.24023623511148,7469.23464823099,7096.99550561798,159.600930990935,"Spillover",102.832892,24.880095
"Busan urban area","South Korea",240.125,275.1875,35.0625,1.37226086374858,2832947,3132865,299918,1.01138435387147,11797.8011452369,11384.4742221213,116.906954567582,"Fragmented",129.0756416,35.1795543
"Jinan urban area","China",256.5625,304.5625,48,1.72983146246961,2255667,2952471,696804,2.72852807556377,8791.88112058465,9694.13831315412,68.8859421013657,"Fragmented",117.12,36.651216
"Wenzhou urban area","China",205.375,299,93.625,3.82749143272251,1693733,2920413,1226680,5.59903084037343,8247.02617163725,9767.26755852843,76.3238986532755,"Fragmented",120.699362,27.993828
"Semarang urban area","Indonesia",329.125,364.875,35.75,1.03650701478674,2025802,2857742,831940,3.50053679179465,6155.11431826814,7832.11236724906,42.9718489314133,"Fragmented",110.4381254,-7.0051453
"Wuxi urban area","China",227.875,489,261.125,7.93473205696858,1713658,2808589,1094931,5.06459815252889,7520.16675809106,5743.53578732106,238.485347478517,"Contained",120.31191,31.49117
"Ningbo urban area","China",309.875,629.8125,319.9375,7.35010501324491,1552379,2752235,1199856,5.893371393729,5009.69423154498,4369.9275578049,266.646580923044,"Fragmented",121.54399,29.868336
"Kaohsiung urban area","Taiwan",383.8125,400.0625,16.25,0.415527258529315,2623091,2719206,96115,0.360513618151486,6834.30320794659,6796.95297609748,169.068303594652,"Spillover",120.3014353,22.6272784
"Changzhou urban area","China",204.875,477.1875,272.3125,8.82282835279342,1578729,2698018,1119289,5.50516611502315,7705.81574130567,5653.99973804846,243.290606804856,"Spillover",119.974062,31.811226
"Nanchang urban area","China",231.5,337.3125,105.8125,3.83604644177961,1726117,2496129,770012,3.75754314283219,7456.22894168467,7400.04891606448,137.416689610032,"Spillover",115.858198,28.682892
"Urumqi urban area","China",325.875,466.0625,140.1875,3.64284159894184,1634389,2460166,825777,4.17437370113796,5015.3862677407,5278.61821107684,169.764355267827,"Spillover",87.616848,43.825592
"Zibo urban area","China",453.3125,507.9375,54.625,1.14426393737978,1985469,2320662,335193,1.57220441690847,4379.9123121467,4568.79438907346,162.965813725227,"Fragmented",118.054927,36.813487
"Taizhou urban area","China",174.875,369.875,195,7.77864642709507,1378319,2285429,907110,5.18693464547263,7881.7383845604,6178.92260898952,214.968416178854,"Fragmented",121.42076,28.65638
"Malang urban area","Indonesia",249.9375,265,15.0625,0.586904971752422,1635664,2242804,607140,3.20713508228345,6544.29207301825,8463.41132075472,24.808940277366,"Spillover",112.6326321,-7.9666204
"Lanzhou urban area","China",163.3125,193.5,30.1875,1.71058547252904,1618504,2179529,561025,3.0207927534176,9910.47225411405,11263.7157622739,53.8077625774253,"Fragmented",103.834304,36.061089
"Xinxiang urban area","China",334.6875,396.3125,61.625,1.70442008199957,1775110,2137221,362111,1.8737789175344,5303.78338001867,5392.76707143984,170.182623560179,"Fragmented",113.927016,35.303136
"Surakarta urban area","Indonesia",376.125,378.5,2.375,0.0629651940341262,1589226,2125451,536225,2.95004565871919,4225.26021934197,5615.45838837516,4.42911091426174,"Fragmented",110.8243272,-7.5754887
"Tegal urban area","Indonesia",215.8125,248.4375,32.625,1.41776965582983,1433025,2106735,673710,3.92872857949379,6640.13900955691,8479.93962264151,48.4258805717594,"Fragmented",109.1255917,-6.8797041
"Guiyang urban area","China",106.4375,150.375,43.9375,3.51614672840752,1482035,2104868,622833,3.57063538187499,13923.9929536113,13997.459684123,70.5445922101109,"Fragmented",106.630154,26.647661
"Tangshan urban area","China",421.375,525.3125,103.9375,2.22918463987444,1836665,2103384,266719,1.36519533020829,4358.74221299318,4004.06234384295,389.689148504606,"Fragmented",118.180194,39.630867
"Fukuoka urban area","Japan",343.1875,356.375,13.1875,0.377777810218028,1735889,1992756,256867,1.38955511554872,5058.13585867784,5591.73903893371,51.3397984170797,"Fragmented",130.4017155,33.5903547
"Xuzhou urban area","China",249.4375,325.375,75.9375,2.69333160816001,1483869,1910886,427017,2.56139555458193,5948.86093710849,5872.87283903189,177.832498471958,"Spillover",117.284124,34.205768
"Baotou urban area","China",272.9375,337.0625,64.125,2.13267876058902,1380563,1895406,514843,3.22017763451349,5058.16533089077,5623.30725013907,124.552533490792,"Spillover",109.840349,40.657378
"Taegu urban area","South Korea",226,255.375,29.375,1.22947722573767,1589839,1845485,255646,1.50226588485241,7034.68584070796,7226.56877141459,114.904985800677,"Fragmented",128.601445,35.8714354
"Luoyang urban area","China",144.0625,193,48.9375,2.96761090656398,1237071,1841029,603958,4.05587375944827,8587.04381778742,9539.0103626943,81.0279853897125,"Fragmented",112.45404,34.619683
"Baoding urban area","China",445.0625,494.375,49.3125,1.05633641930588,1537185,1835688,298503,1.7905059657191,3453.86322145766,3713.14892541087,165.199344730204,"Fragmented",115.46459,38.874434
"Huhehaote urban area","China",240.5625,290.6875,50.125,1.91071365231326,1249880,1825047,575167,3.85814787221066,5195.65601454923,6278.38142334982,87.1486020581848,"Fragmented",111.749181,40.842585
"Taichung urban area","Taiwan",199.4375,243.875,44.4375,2.03191693668004,1641289,1815569,174280,1.01427937879403,8229.590723911,7444.67042542286,254.977622217122,"Spillover",120.6736482,24.1477358
"Nanning urban area","China",176.4375,235.5,59.0625,2.92953282178131,1175617,1799783,624166,4.35071491023674,6663.07899397804,7642.3906581741,94.6262692937456,"Contained",108.366543,22.817002
"Yogyakarta urban area","Indonesia",233.1875,233.625,0.4375,0.0187459047687395,1352200,1799090,446890,2.89664054802928,5798.76708657196,7700.75976457999,0.978988117881358,"Fragmented",110.3694896,-7.7955798
"Cixi urban area","China",187.0625,436.8125,249.75,8.85060127571687,1014606,1747370,732764,5.58658529861849,5423.88773805546,4000.27471741308,340.832792003974,"Spillover",121.266579,30.169665
"Sapporo urban area","Japan",307.4375,314.9375,7.5,0.241314615002082,1464374,1705112,240738,1.53367136155796,4763.15999186827,5414.12820003969,31.1542008324402,"Spillover",141.3543763,43.0620958
"George Town urban area","Malaysia",325.875,395.625,69.75,1.95846026761987,1107706,1682629,574923,4.26928275966774,3399.17453011124,4253.0906793049,121.320594236098,"Fragmented",100.3091,5.4356367
"Datong urban area","China",324.625,350.8125,26.1875,0.778829447862899,1392065,1661874,269809,1.78736174222505,4288.2248748556,4737.21432389097,97.0594012801649,"Fragmented",113.300129,40.076763
"Cirebon urban area","Indonesia",148.8125,171.0625,22.25,1.40317195177076,1132600,1656403,523803,3.87449971086334,7610.91978160437,9683.02813299233,42.4778017689857,"Spillover",108.5523164,-6.7320229
"Linyi urban area","China",245.25,348.375,103.125,3.57234196405934,1198264,1655936,457672,3.28781817542737,4885.8878695209,4753.31467527808,225.325123669353,"Fragmented",118.356414,35.104674
"Palembang urban area","Indonesia",198.8125,205.25,6.4375,0.319174067415282,1192519,1602228,409709,2.99731442983981,5998.20936812323,7806.22655298417,15.7123714636486,"Spillover",104.7754307,-2.9760735
"Tasikmalaya urban area","Indonesia",78.4375,93.3125,14.875,1.75168461429121,1060054,1594737,534683,4.16842748294039,13514.6326693227,17090.2826523778,27.8202224495636,"Spillover",108.2171633,-7.3505808
"Makassar urban area","Indonesia",113.0625,138.875,25.8125,2.07762308209859,1094912,1591997,497085,3.81409036156626,9684.13045881703,11463.5247524752,51.9277387167185,"Spillover",119.4327314,-5.1476651
"Handan urban area","China",236.875,252.5625,15.6875,0.643322154678694,1379549,1590079,210530,1.43040442629527,5823.95356200528,6295.78421182876,74.5143209993825,"Fragmented",114.538962,36.625657
"Huaiyin urban area","China",307.875,326.875,19,0.600636413739325,1367428,1562746,195318,1.3440819209431,4441.50385708486,4780.8673040153,97.2772606723395,"Fragmented",119.015288,33.61036
"Weifang urban area","China",289.9375,318.75,28.8125,0.951919342771087,983235,1550370,567135,4.65929444618759,3391.19637852986,4863.90588235294,50.8036005536601,"Fragmented",119.161749,36.706962
"Kitakyushu urban area","Japan",352.5625,371.6875,19.125,0.529653088399742,1355953,1539317,183364,1.27642041610905,3845.99326360574,4141.42794686397,104.300735149757,"Fragmented",130.8752161,33.8834093
"Cebu urban area","Philippines",123.0625,161.4375,38.375,2.75142865188488,1017447,1527407,509960,4.14640856059657,8267.72574911122,9461.28997289973,75.2510000784375,"Fragmented",123.8857747,10.607936
"Changzhi urban area","China",262.4375,303.8125,41.375,1.47474640521038,1237616,1482858,245242,1.82428399774773,4715.85044058109,4880.83275046287,168.710905962274,"Fragmented",113.116404,36.195409
"Denpasar urban area","Indonesia",210.0625,227.0625,17,0.78123790701211,1070835,1473252,402417,3.24177156902415,5097.69711395418,6488.31048720066,42.2447361816225,"Fragmented",115.2126293,-8.6704582
"Anyang urban area","China",217.25,242,24.75,1.08473062125928,1227106,1465481,238375,1.7911008637781,5648.35903337169,6055.70661157025,103.828002097535,"Spillover",114.392393,36.097577
"Jiaozuo urban area","China",259.25,327.875,68.625,2.37618785623102,1194575,1430027,235452,1.8153085149719,4607.81099324976,4361.50057186428,291.460679883798,"Fragmented",113.241823,35.215893
"Xining urban area","China",131.1875,214.5625,83.375,5.0427629409834,953312,1425406,472094,4.10470366491428,7266.78989995236,6643.31371977862,176.60677746381,"Fragmented",101.778224,36.617134
"Phnom Penh urban area","Cambodia",107.375,163.5,56.125,4.29451239826628,917645,1405381,487736,4.35468164717704,8546.16996507567,8595.60244648318,115.072498236751,"Fragmented",104.8921668,11.5448729
"Tongzhou urban area","China",83.8125,185.5625,101.75,8.27249433279875,788922,1401105,612183,5.9116323470357,9412.93959731544,7550.58268777366,166.208470343018,"Fragmented",116.656435,39.909946
"Haikou urban area","China",167.3125,194.5625,27.25,1.52034265943577,954719,1395896,441177,3.87182203203531,5706.20246544639,7174.53774494057,61.7665925467556,"Contained",110.198293,20.044002
"P'yongyang urban area","North Korea",124.5,132.9375,8.4375,0.657888411440858,1236843,1393413,156570,1.19907158763692,9934.48192771084,10481.7150916784,53.8896340295076,"Spillover",125.7625241,39.0392193
"Jiexiu urban area","China",344.4375,412.625,68.1875,1.82267702269014,1190879,1383251,192372,1.50871628966008,3457.46035202323,3352.31990305968,354.456469756513,"Fragmented",111.916712,37.026945
"Yantai urban area","China",199.625,245.6875,46.0625,2.09790089508077,909546,1364297,454751,4.1378064728205,4556.27301189731,5552.97685067413,101.291695895116,"Fragmented",121.447935,37.463822
"Jember urban area","Indonesia",227.25,230.625,3.375,0.147531538227373,1021160,1358347,337187,2.8943891681761,4493.55335533553,5889.8514905149,10.009282682903,"Spillover",113.6680747,-8.1844859
"Sukabumi urban area","Indonesia",76.1875,95.625,19.4375,2.2983838285363,895799,1357948,462149,4.2478859504898,11757.8211648893,14200.7633986928,42.0589463571272,"Spillover",106.9299579,-6.9277361
"Liuzhou urban area","China",118.8125,154.3125,35.5,2.64880487451247,1035513,1329755,294242,2.53251439148258,8715.52235665439,8617.28635074929,120.648989607194,"Spillover",109.42841,24.326038
"Johor Bahru urban area","Malaysia",271.1875,416.3125,145.125,4.37944380579523,820597,1297170,476573,4.68553988078119,3025.93961742337,3115.85647800631,304.517880786364,"Contained",103.7413591,1.492659
"Putian urban area","China",290.6875,354.75,64.0625,2.01161066926679,1106458,1278041,171583,1.45208696682175,3806.34874220598,3602.65257223397,373.361580109918,"Contained",119.007777,25.454085
"Jilin urban area","China",270.625,292.0625,21.4375,0.765250405268777,1199748,1261145,61397,0.500332541237234,4433.24896073903,4318.06548255938,349.162011173184,"Fragmented",125.325862,43.89654
"Kediri  urban area","Indonesia",247.875,273.9375,26.0625,1.00476814890178,903834,1256399,352565,3.34843172867366,3646.32980332829,4586.44398813598,73.9225391062641,"Spillover",112.0178286,-7.8480156
"Maoming urban area","China",134.6875,151.6875,17,1.19574457417658,982408,1250113,267705,2.43909619733831,7293.98051044084,8241.37124021426,63.5027362208401,"Spillover",110.925456,21.662999
"Qinhuangda urban areao","China",255.6875,305.6875,50,1.80211910490834,967441,1235994,268553,2.48001666838081,3783.68516255194,4043.32529135146,186.182988088012,"Fragmented",119.600493,39.935385
"Yingkou urban area","China",405.1875,442.1875,37,0.877669907234699,1117204,1228493,111289,0.954113713410672,2757.2518895573,2778.21738515901,332.46771918159,"Fragmented",122.235418,40.667012
"Xingtai urban area","China",186.25,203.4375,17.1875,0.886596945090046,1046755,1221274,174519,1.55394684993496,5620.1610738255,6003.19016897081,98.4849787129195,"Fragmented",114.504844,37.070589
"Hai Phong urban area","Vietnam",161.375,198.75,37.375,2.10501846665739,817540,1221115,403575,4.09377424836225,5066.08830364059,6143.9748427673,92.6097999132751,"Fragmented",106.6880841,20.8449115
"Yinchuan urban area","China",71.625,156.9375,85.3125,8.15988317447081,640602,1214059,573457,6.60195030139658,8943.83246073299,7735.93946634807,148.768783012501,"Fragmented",106.230909,38.487194
"Lingxi urban area","China",73.375,143.3125,69.9375,6.92360572018984,837401,1201395,363994,3.67528418803625,11412.6201022147,8383.04404709987,192.139156139936,"Spillover",111.177234,29.367984
"Xiangtan urban area","China",73.8125,156.1875,82.375,7.78333960927303,675776,1192105,516329,5.84032739139904,9155.30567315834,7632.525010004,159.539750817793,"Fragmented",112.944049,27.829738
"Jiangyin urban area","China",103.75,279.875,176.125,10.4326770223823,710260,1190623,480363,5.30177481297794,6845.87951807229,4254.12416257258,366.649804418742,"Contained",120.284939,31.920658
"Daqing urban area","China",235.5625,252.625,17.0625,0.701749852238369,941134,1188452,247318,2.36064604471876,3995.26240382064,4704.41167738743,68.9901260725058,"Fragmented",125.103784,46.58931
"Jinzhou urban area","China",236.5625,261.875,25.3125,1.02173287685306,992998,1153086,160088,1.50591082806439,4197.61373844121,4403.1923627685,158.116161111389,"Spillover",121.126846,41.095685
"Zhangjiakou urban area","China",226,244.75,18.75,0.800207503530972,995515,1151806,156291,1.46894684906451,4404.93362831858,4706.05107252298,119.968520260284,"Fragmented",114.886335,40.767545
"Garut urban area","Indonesia",33.875,45.9375,12.0625,3.0929115766584,666347,1136920,470573,5.48797268885905,19670.7601476015,24749.2789115646,25.6336423891723,"Contained",107.9235563,-7.251216
"Mandalay urban area","Myanmar",111.4375,129.8125,18.375,1.53797907760617,821889,1130511,308622,3.23956416101323,7375.33595064498,8708.79922965816,59.5388533545891,"Fragmented",96.0891032,21.9588282
"Sendai urban area","Japan",237.3125,251.9375,14.625,0.59982381041978,967641,1118370,150729,1.45819336718863,4077.49697129313,4439.07715207145,97.0284417729833,"Spillover",140.8693558,38.268215
"Cikampek urban area","Indonesia",91.875,105.75,13.875,1.41642619058162,762106,1116340,354234,3.89104401115939,8295.03129251701,10556.4066193853,39.1690238655804,"Contained",107.4381106,-6.3958742
"Kaifeng urban area","China",192.75,202.4375,9.6875,0.491576135308072,992299,1096110,103811,0.999949962022962,5148.11413748379,5414.56004939796,93.31862712044,"Spillover",114.307583,34.797281
"Dandong urban area","China",158.3125,209.875,51.5625,2.85953346978608,885944,1090500,204556,2.0991061248092,5596.17212791157,5195.94997022037,252.070337707034,"Fragmented",124.354451,40.000787
"Huaibei urban area","China",173.9375,192.25,18.3125,1.00603251188371,794811,1086694,291883,3.17734304525368,4569.52066115702,5652.50455136541,62.7391797398273,"Spillover",116.798265,33.955845
"Chifeng urban area","China",188.75,246.75,58,2.71574491885721,901473,1076946,175473,1.79445473070445,4776.01589403974,4364.52279635258,330.5351820508,"Fragmented",118.886856,42.257817
"Cianjur urban area","Indonesia",60.375,69.1875,8.8125,1.37177464370075,715682,1066550,350868,4.0701337122959,11853.9461697723,15415.3568202349,25.1162830466158,"Contained",107.1425442,-6.8168237
"Kwangju urban area","South Korea",86.6875,107.6875,21,2.19293718590385,875400,1037511,162111,1.71350420590569,10098.3417447729,9634.46082414393,129.540870144531,"Fragmented",126.8526012,35.1595454
"Huainan urban area","China",117.125,122.1875,5.0625,0.424046640360391,760337,1028920,268583,3.07125128534004,6491.67129135539,8420.82864450128,18.8489219347464,"Fragmented",116.999933,32.625478
"Changshu urban area","China",87.25,244.125,156.875,10.8369795187606,514981,1013254,498273,7.00220124457813,5902.36103151862,4150.55401945724,314.837448547282,"Contained",120.752481,31.654376
"Yungkang urban area","Taiwan",215.75,226.3125,10.5625,0.479108648328846,966804,1010274,43470,0.440779326809065,4481.13093858633,4464.06628003314,242.98366689671,"Spillover",120.2628111,23.0211779
"Cilacap urban area","Indonesia",93.875,100.9375,7.0625,0.728011243457377,720831,1007170,286339,3.4015222943541,7678.6258322237,9978.15479876161,24.6648203702604,"Contained",109.023521,-7.6982991
"Zhanjiang urban area","China",103.3125,129.875,26.5625,2.31451948882871,728541,1001648,273107,3.23479817529396,7051.81851179673,7712.40038498556,97.2604144163277,"Fragmented",110.359336,21.270746
"Yangzhou urban area","China",67.9375,139.75,71.8125,7.47915058421026,758087,996295,238208,2.77012627562041,11158.5942962282,7129.12343470483,301.469723938743,"Fragmented",119.412947,32.394213
"Matsumoto urban area","Japan",72.3125,74.875,2.5625,0.348837541687521,882656,994253,111597,1.19767697111605,12206.1331028522,13278.8380634391,22.9620867944479,"Spillover",137.9720341,36.2380381
"Bandar Lampung urban area","Indonesia",63.9375,76.625,12.6875,1.8266564529995,684822,989952,305130,3.75371198615502,10710.8035190616,12919.4388254486,41.5806377609543,"Spillover",105.2667887,-5.3971396
"Madiun urban area","Indonesia",161.375,184.1875,22.8125,1.331014284023,685327,985763,300436,3.70207994737336,4246.79783113865,5351.95385137428,75.9313131582101,"Spillover",111.5300159,-7.6310587
"Wuhu urban area","China",48.625,102.1875,53.5625,7.70945192344528,428018,984407,556389,8.68541449584556,8802.42673521851,9633.34067278288,96.2680786284416,"Contained",118.432941,31.352859
"Puyang urban area","China",193.75,198,4.25,0.217219204436631,830564,979104,148540,1.65893887169265,4286.78193548387,4944.9696969697,28.6118217315201,"Spillover",115.029216,35.761829
"Tai'an urban area","China",131.0625,147.5625,16.5,1.19283324479093,803343,978461,175118,1.99156377810388,6129.46494992847,6630.82422702245,94.2221816146827,"Spillover",117.087614,36.200252
"Hengyang urban area","China",86.0625,117.5625,31.5,3.16811261839326,675730,975756,300026,3.74252234253339,7851.61946259986,8299.89154704944,104.990900788598,"Spillover",112.572018,26.893369
"Purwokerto urban area","Indonesia",134.75,145.125,10.375,0.744500024685728,693106,973449,280343,3.45496890010309,5143.64378478664,6707.65891472868,37.0082363390561,"Spillover",NA,NA
"Nara urban area","Japan",203.25,230.9375,27.6875,1.28529342244021,817294,971420,154126,1.74260967693936,4021.12669126691,4206.41948579161,179.641981236131,"Fragmented",135.8050002,34.6850869
"Jining urban area","China",75.625,111.6875,36.0625,3.97619447332408,661202,948244,287042,3.67131194063057,8743.16694214876,8490.15332960269,125.634924505821,"Spillover",116.587282,35.414982
"Taejon urban area","South Korea",77.375,90.4375,13.0625,1.57218351280704,744641,943405,198764,2.39414474697136,9623.79321486268,10431.5687629578,65.7186412026323,"Fragmented",127.3845475,36.3504119
"Rui'an urban area","China",84.625,127,42.375,4.14310068718803,680105,939427,259322,3.28296739489505,8036.69128508124,7397.06299212598,163.406884105475,"Contained",120.655148,27.778657
"Zhuzhou urban area","China",82.375,104.9375,22.5625,2.45036938473677,736314,936971,200657,2.43923088648602,8938.56145675266,8928.84812388326,112.443124336554,"Fragmented",113.133853,27.827987
"Jiaonan urban area","China",180.4375,211.1875,30.75,1.58606565788328,596625,929658,333033,4.53510898351371,3306.54658815379,4402.05031074282,92.3331922061778,"Spillover",117.650841,32.155333
"Ulaanbaatar urban area","Mongolia",209.9375,271.125,61.1875,2.59069085022974,631407,926999,295592,3.91469980506871,3007.59511759452,3419.08344859382,206.999851146174,"Contained",106.9057439,47.8863988
"Huangshi urban area","China",90.75,115.3125,24.5625,2.42429313323726,763297,920313,157016,1.88827278655226,8410.98622589532,7981.03414634146,156.433102358995,"Fragmented",115.038835,30.200031
"Xiangfan urban area","China",184.5,220.5,36,1.79846334240214,781445,919560,138115,1.64082125681373,4235.47425474255,4170.34013605442,260.652354921623,"Contained",112.122415,32.008986
"Tengzhou urban area","China",218.4375,245.75,27.3125,1.18511576829197,821156,915301,94145,1.09131051465621,3759.22632331903,3724.52085452696,290.110998990918,"Contained",117.164388,35.084021
"Yueqing urban area","China",88.875,128.0625,39.1875,3.72041271361573,633291,912721,279430,3.72261864093216,7125.63713080169,7127.15275744265,140.24084743943,"Contained",120.983906,28.113725
"Yining urban area","China",271.0625,332.8125,61.75,2.07350292385898,679323,898094,218771,2.83111564313186,2506.14895088771,2698.49840375587,282.258617458438,"Fragmented",81.527454,43.977138
"Otsu urban area","Japan",138.125,146.5,8.375,0.590399590580791,770753,896976,126223,1.52817038015746,5580.11221719457,6122.70307167235,66.3508235424606,"Fragmented",135.8546074,35.0178929
"Zhangjiagang urban area","China",69.5,197.0625,127.5625,10.9843948469014,469905,887045,417140,6.55983972510075,6761.22302158273,4501.33840786552,305.802608237043,"Contained",120.556005,31.875572
"Da Nang urban area","Vietnam",62.6875,88.0625,25.375,3.45726805128759,562091,869178,307087,4.45523473476045,8966.55633100698,9870.01277501774,82.6313064375893,"Fragmented",108.2021667,16.0544068
"Qiqiha'er urban area","China",120.75,127.4375,6.6875,0.540492979378848,792670,864329,71659,0.869220870876775,6564.55486542443,6782.37567435017,93.3239369793048,"Fragmented",123.918186,47.354348
"Mudanjiang urban area","China",224.125,233.6875,9.5625,0.418682243454089,746196,857631,111435,1.40158778516118,3329.37423312883,3669.99090665953,85.812356979405,"Fragmented",129.633169,44.551653
"Guilin urban area","China",84.5,111.125,26.625,2.77689818459753,635003,854828,219825,3.01733155204935,7514.82840236686,7692.49043869516,121.119071989082,"Fragmented",110.179954,25.234479
"Yiwu urban area","China",106.25,164.875,58.625,4.49189058240182,534537,851974,317437,4.77190897416027,5030.93647058824,5167.39347990902,184.682314916031,"Contained",120.07514,29.306757
"Fuqing urban area","China",243.5625,306.9375,63.375,2.33965600336398,735597,847205,111608,1.42262719597966,3020.15704387991,2760.18733455508,567.835639022292,"Contained",119.384334,25.721143
"Naha urban area","Japan",157.0625,163.3125,6.25,0.39097961866754,731696,846516,114820,1.46831513072017,4658.6295264624,5183.41216991963,54.4330256052952,"Fragmented",127.6791568,26.2123124
"Baoji urban area","China",69.375,121.4375,52.0625,5.75842687313888,531108,844665,313557,4.74906752502394,7655.61081081081,6955.55326814205,166.038391743766,"Spillover",107.237743,34.363184
"Gaizhou urban area","China",154.375,221.9375,67.5625,3.69680412773559,595708,844254,248546,3.54853751702967,3858.83724696356,3804.01689664883,271.830968915211,"Spillover",122.348936,40.400611
"Benxi urban area","China",109.25,135.5,26.25,2.17667948209438,715831,837997,122166,1.58818382870679,6552.22883295195,6184.47970479705,214.871568194097,"Fragmented",123.685143,41.486981
"Ulsan urban area","South Korea",89,99.75,10.75,1.14683314201273,745368,837089,91721,1.1672836070451,8374.92134831461,8391.86967418546,117.203257705433,"Fragmented",129.3113596,35.5383773
"Yueyang urban area","China",72.6875,113.375,40.6875,4.54559936660316,515533,831491,315958,4.89628517592185,7092.45743766122,7333.98897464168,128.775027060559,"Spillover",113.12873,29.356804
"Batam urban area","Indonesia",76.5625,155.875,79.3125,7.36828991747926,518573,829182,310609,4.80548123746842,6773.19836734694,5319.53167602245,255.345144538632,"Contained",104.0304535,1.0456264
"Davao urban area","Philippines",65.125,76.25,11.125,1.58959084047034,609127,826172,217045,3.09468171732534,9353.19769673704,10835.0426229508,51.2566518463913,"Contained",125.455341,7.190708
"Hiroshima urban area","Japan",155.875,158.9375,3.0625,0.194755795043957,740061,822189,82128,1.05793376498055,4747.78508420209,5173.03342508848,37.2893532047536,"Spillover",132.4552927,34.3852029
"Keshi urban area","China",54.3125,124,69.6875,8.60559247342747,454516,821663,367147,6.09977318483335,8368.53394706559,6626.31451612903,189.8081694798,"Fragmented",75.99379,39.467686
"Banyuwangi urban area","Indonesia",68.4375,71,2.5625,0.3682660093518,599201,819574,220373,3.181435178699,8755.44840182648,11543.2957746479,11.6280125060693,"Contained",114.3691416,-8.2190944
"Suqian urban area","China",56.1875,79.625,23.4375,3.54782322714973,389091,819101,430010,7.72800743110375,6924.86763070078,10286.9827315542,54.5045464058975,"Spillover",118.275198,33.963232
"Pingxiang urban area","China",56.9375,89.25,32.3125,4.59742257491582,568907,799482,230575,3.4610165610364,9991.78046103183,8957.78151260504,140.138783476092,"Spillover",113.854556,27.622768
"Dongying urban area","China",371.375,410,38.625,0.994359483085394,612193,796045,183852,2.66086658951774,1648.44968024234,1941.57317073171,210.087461653939,"Spillover",118.674767,37.434751
"Yangquan urban area","China",97.5,151.4375,53.9375,4.50158597096943,662606,794900,132294,1.8370272615505,6795.95897435897,5249.03012794057,407.709344339123,"Spillover",113.580519,37.856972
"Ma'anshan urban area","China",62.375,126.625,64.25,7.33735518455804,455287,790210,334923,5.66854492294218,7299.19038076152,6240.55281342547,191.835138225801,"Fragmented",118.50676,31.670452
"Banjarmasin urban area","Indonesia",86.625,103.5,16.875,1.79576494307534,545564,787625,242061,3.74027114520814,6297.99711399711,7609.90338164251,69.7138324637178,"Fragmented",114.5943784,-3.3186067
"Pekan Baru urban area","Indonesia",140.5,143.8125,3.3125,0.233300513326592,590951,787093,196142,2.90760191061562,4206.05693950178,5473.04997827032,16.8882748213029,"Contained",101.4477793,0.5070677
"Yichang urban area","China",72.8125,87.9375,15.125,1.90531064415348,655989,786909,130920,1.83634308942886,9009.29098712446,8948.50319829424,115.528567063856,"Fragmented",111.286471,30.691967
"Blitar urban area","Indonesia",120.0625,126.1875,6.125,0.498804463471654,578102,785872,207770,3.11806011629966,4815.00884955752,6227.81178801387,29.4797131443423,"Spillover",112.1609056,-8.0954627
"Fuxin urban area","China",220.375,256.625,36.25,1.53450682858101,748333,785000,36667,0.479502468388434,3395.72546795235,3058.93813930833,988.627376114763,"Fragmented",121.670324,42.021619
"Dingzhou urban area","China",227.625,238.5,10.875,0.46778845277246,725623,775914,50291,0.672361197875967,3187.80010982976,3253.30817610063,216.241474617725,"Contained",114.990392,38.516461
"Pingdingshan urban area","China",84,100.25,16.25,1.78423327775799,642630,775628,132998,1.8988419177803,7650.35714285714,7736.93765586035,122.182288455465,"Spillover",113.192661,33.76617
"Zhenjiang urban area","China",64.1875,152.8125,88.625,9.06134315740564,482589,774978,292389,4.85066651813038,7518.4264849075,5071.43067484663,303.106478013879,"Contained",119.425836,32.187849
"Rizhao urban area","China",149.375,203.75,54.375,3.15302537347405,539538,773990,234452,3.67435238949853,3611.96987447699,3798.72392638037,231.923805299166,"Contained",119.526925,35.416734
"Pekalongan urban area","Indonesia",48.875,55.0625,6.1875,1.19916183206088,529210,772419,243209,3.85382358910709,10827.8260869565,14028.0408626561,25.4410815389233,"Fragmented",109.6745916,-6.8898362
"Shouguang urban area","China",321.375,369.5,48.125,1.4052021877996,688317,771558,83241,1.14816498685768,2141.78763127188,2088.11366711773,578.140579762377,"Contained",118.79074,36.85576
"Liaocheng urban area","China",159.9375,168.375,8.4375,0.515428996513046,583027,771418,188391,2.83953637926853,3645.34271199687,4581.54714179658,44.7871713616893,"Contained",115.98546,36.45703
"Klaten urban area","Indonesia",111.1875,111.5,0.3125,0.0280701936830107,578473,768554,190081,2.88193631380705,5202.68015739179,6892.86098654709,1.64403596361551,"Contained",110.6645683,-7.657893
"Ipoh urban area","Malaysia",324.875,360.5,35.625,1.04594681571034,522104,767926,245822,3.9336633524267,1607.09195844556,2130.16920943135,144.92193538414,"Spillover",101.090106,4.597479
"Changde urban area","China",53.4375,104.0625,50.625,6.8919038401397,486643,767877,281234,4.66660027490429,9106.76959064327,7378.9981981982,180.010240582575,"Spillover",111.698497,29.031673
"Panjin urban area","China",206.9375,245.6875,38.75,1.73125128427639,667329,767846,100517,1.41294922994354,3224.78526125038,3125.29534469601,385.506929176159,"Spillover",122.070714,41.119997
"Kanazawa urban area","Japan",200.6875,211.5,10.8125,0.526139544631156,663843,766266,102423,1.44518011718933,3307.84428526939,3623.00709219858,105.567108950138,"Fragmented",136.6562051,36.5613254
"Melaka urban area","Malaysia",235.125,256.75,21.625,0.883737718655254,528406,762225,233819,3.73171182382,2247.34077618288,2968.74391431353,92.4860682835869,"Spillover",102.249063,2.194418
"Heze urban area","China",212.5,226.0625,13.5625,0.620613085535151,692658,760494,67836,0.93869689319576,3259.56705882353,3364.0873652198,199.930715254437,"Contained",115.480656,35.23375
"Zunhua urban area","China",151.8125,323,171.1875,7.84238873315405,496995,760424,263429,4.34469635211949,3273.74228077398,2354.25386996904,649.843031708734,"Spillover",117.965892,40.189202
"Jombang urban area","Indonesia",153.9375,160.6875,6.75,0.430070250546346,549299,748155,198856,3.13789833313146,3568.32480714576,4655.96266044341,33.9441605986241,"Contained",112.28609,-7.5740867
"Linfen urban area","China",139.3125,146.8125,7.5,0.525743720081273,568847,748120,179273,2.77738872207371,4083.244504262,5095.75138356748,41.8356361526833,"Contained",111.518976,36.088005
"Fuji urban area","Japan",156.1875,163,6.8125,0.427842566229302,658864,746877,88013,1.26172718115501,4218.41696678671,4582.06748466258,77.4033381432288,"Fragmented",138.6762728,35.1613985
"Bangbu urban area","China",67.5,85.625,18.125,2.40700882909409,517550,746620,229070,3.73247275394222,7667.40740740741,8719.6496350365,79.12428515301,"Fragmented",117.389719,32.916287
"Mianyang urban area","China",60.0625,120.8125,60.75,7.23852863914238,434987,746217,311230,5.54529694430326,7242.23933402706,6176.65390584584,195.19326543071,"Spillover",104.678946,31.467495
"Nanyang urban area","China",128.75,141.3125,12.5625,0.935359503770423,588785,736666,147881,2.26602812531109,4573.08737864078,5213.02786377709,84.950061197855,"Spillover",112.528308,32.990664
"Cangzhou urban area","China",154.75,169.75,15,0.929451368693433,615587,732705,117118,1.75692430008952,3977.9450726979,4316.37702503682,128.075957581243,"Spillover",116.838835,38.304477
"Gaobeidian urban area","China",218.8125,245.6875,26.875,1.1651880865124,655031,732542,77511,1.12465840504144,2993.57212225079,2981.60061053167,346.724980970443,"Spillover",115.873758,39.32652
"Ganzhou urban area","China",97.4375,163.0625,65.625,5.28410179070058,483313,730870,247557,4.22242307575322,4960.2360487492,4482.14641625144,265.090464014348,"Spillover",114.93503,25.831829
"Kumamoto urban area","Japan",172.9375,183.0625,10.125,0.570595399875176,635842,729407,93565,1.38228411604054,3676.71557643657,3984.46978490953,108.21354138834,"Spillover",130.7078911,32.8031004
"Pemalang urban area","Indonesia",61.5625,68.8125,7.25,1.11954548124377,513675,728516,214841,3.55595222552638,8343.95939086294,10586.9718437784,33.7458864928017,"Contained",109.4259114,-7.0599422
"Jinhua urban area","China",107.25,170.3125,63.0625,4.73333244725005,427695,721042,293347,5.36166837636494,3987.83216783217,4233.64110091743,214.975779537544,"Spillover",119.647421,29.079175
"Shangqiu urban area","China",157.25,171.8125,14.5625,0.889602353169167,609493,712897,103404,1.57943818359122,3875.94912559618,4149.273190251,140.831109048006,"Spillover",115.656339,34.414961
"Yancheng urban area","China",31.875,73.5625,41.6875,8.7228000434865,355094,709995,354901,7.17443325624112,11140.2039215686,9651.58878504673,117.462334566541,"Spillover",120.16366,33.347316
"Zhuji urban area","China",123.9375,195.625,71.6875,4.66998509737331,519486,705961,186475,3.11472459369314,4191.51588502269,3608.74632587859,384.434910845958,"Contained",120.246863,29.708692
"Kebumen urban area","Indonesia",102.875,103.125,0.25,0.0242748024296129,528169,700532,172363,2.86449708146962,5134.08505467801,6793.03757575758,1.45042729588137,"Contained",109.6524575,-7.6680559
"Wafangdian urban area","China",198.0625,237.875,39.8125,1.84850405210128,643989,699578,55589,0.831393548044626,3251.44335752603,2940.94797687861,716.193851301516,"Spillover",121.979603,39.627114
"Kota Kinabalu urban area","Malaysia",171.875,185.5,13.625,0.765791434725442,474805,686283,211478,3.75255388377073,2762.50181818182,3699.63881401617,64.427505461561,"Spillover",116.0734568,5.980408
"Yixing urban area","China",62.3125,166.5,104.1875,10.3275327603538,391524,685518,293994,5.76112147945007,6283.23370110331,4117.22522522523,354.386484077906,"Contained",119.823308,31.340637
"Jiaxing urban area","China",42.4375,118.5625,76.125,10.820410786918,288370,684648,396278,9.03143465302914,6795.16936671576,5774.5745914602,192.099990410772,"Spillover",120.758543,30.753924
"Angeles City urban area","Philippines",135.75,185.75,50,3.18555357049275,425633,683176,257543,4.84548448913053,3135.41804788214,3677.93270524899,194.142337396085,"Fragmented",120.5887029,15.1449853
"Xuchang urban area","China",110.1875,119.5,9.3125,0.814629305882341,545096,680479,135383,2.24313870986605,4946.98581962564,5694.38493723849,68.7863321096445,"Spillover",113.852454,34.035771
"Hamamatsu urban area","Japan",271.8125,291.75,19.9375,0.710358972261996,595201,674588,79387,1.25990041072371,2189.74844791906,2312.21251071123,251.143134266316,"Spillover",137.7261258,34.7108344
"Shaoyang urban area","China",48.9375,82.8125,33.875,5.4011651110862,424401,673554,249153,4.72722647041513,8672.30651340996,8133.48226415094,135.960634630127,"Fragmented",111.467791,27.238893
"Hsinchu urban area","Taiwan",81.5625,118.125,36.5625,3.77318093138109,563946,671268,107322,1.75736264735027,6914.28045977012,5682.69206349206,340.680382400626,"Contained",120.9674798,24.8138287
"Probolinggo urban area","Indonesia",79.875,86.75,6.875,0.829093158810009,487699,668426,180727,3.20248314530992,6105.77777777778,7705.19884726225,38.0408018724374,"Spillover",113.2037131,-7.7764226
"Mataram urban area","Indonesia",54.5,57.875,3.375,0.602656820337307,485721,667904,182183,3.2363678435326,8912.3119266055,11540.4578833693,18.525328927507,"Spillover",116.1004894,-8.5769951
"Luohe urban area","China",131.3125,138.75,7.4375,0.552458193148455,558349,666726,108377,1.78977745934412,4252.06282722513,4805.23243243243,68.6261845225463,"Contained",114.016536,33.580873
"Huzhou urban area","China",58.1875,135.4375,77.25,8.81554036110485,357371,663470,306099,6.3825015217501,6141.71428571429,4898.71712044301,252.369331490792,"Contained",120.086823,30.894348
"Bojonegoro urban area","Indonesia",159.625,164.1875,4.5625,0.282215009834979,488469,660006,171537,3.05547933998572,3060.10336726703,4019.83098591549,26.5977602499752,"Contained",111.7614661,-7.3174629
"Subang urban area","Indonesia",86.8125,90,3.1875,0.361241407831513,482961,658050,175089,3.14179449568613,5563.2656587473,7311.66666666667,18.205027157617,"Contained",107.7607951,-6.5622888
"Weihai urban area","China",92.875,108.875,16,1.60215841999744,446449,652726,206277,3.87138101065448,4806.98788694482,5995.18714121699,77.5656035331132,"Contained",122.12042,37.513068
"Padang urban area","Indonesia",48.9375,59.1875,10.25,1.91986076594529,413468,651847,238379,4.65750492417974,8448.89910600255,11013.2544878564,42.9987540848816,"Spillover",100.417181,-0.9470832
"Samarinda urban area","Indonesia",58.3125,58.4375,0.125,0.0214155772208938,492048,651438,159390,2.84580023906154,8438.12218649518,11147.6021390374,0.784239914674697,"Spillover",117.1436154,-0.4948232
"Guigang urban area","China",93.8125,146.4375,52.625,4.55364057811599,467409,644620,177211,3.26678836911497,4982.3744170553,4402.01451131029,296.962378181941,"Contained",109.598927,23.111531
"Siping urban area","China",147.3125,167,19.6875,1.26227661552807,540907,642660,101753,1.73862569266199,3671.83368689011,3848.26347305389,193.483238823425,"Spillover",124.350398,43.16642
"Anqing urban area","China",33.25,63.875,30.625,6.74656932601506,339235,638129,298894,6.52236077704843,10202.5563909774,9990.27788649706,102.46107315637,"Fragmented",117.115101,30.53192
"Mojokerto urban area","Indonesia",39.5625,45.9375,6.375,1.50521674925546,442119,635802,193683,3.69988411562904,11175.2037914692,13840.587755102,32.9146078902124,"Spillover",112.4401329,-7.4704747
"Tulungagung urban area","Indonesia",84.3125,92.8125,8.5,0.965139671060182,457056,634928,177872,3.34167738971574,5420.97553743514,6840.97508417508,47.7871727984168,"Contained",111.9641728,-8.091221
"Xintai urban area","China",118.125,124.8125,6.6875,0.552211350648691,620911,632581,11670,0.186378681668959,5256.38941798942,5068.25037556335,573.050556983719,"Contained",117.767953,35.909032
"Leshan urban area","China",106.875,147.3125,40.4375,3.2610049188866,488282,631904,143622,2.61197318065323,4568.72046783626,4289.54773016546,281.555054239601,"Spillover",103.765568,29.552106
"Zhujiang urban area","China",58.3125,112.125,53.8125,6.75643914681036,346865,630432,283567,6.15678980264151,5948.38156484459,5622.58193979933,189.769966180832,"Spillover",113.6216667,22.7694444
"Buon Ma Thu urban area","Vietnam",101,104.1875,3.1875,0.311199660573451,445429,629858,184429,3.52528055315012,4410.18811881188,6045.42771445711,17.2830737031595,"Spillover",108.0382475,12.6661944
"Jincheng urban area","China",107,111.3125,4.3125,0.395908922835147,497757,628869,131112,2.36565768315759,4651.93457943925,5649.58113419427,32.8917261577888,"Spillover",112.851831,35.490702
"Jiamusi urban area","China",135,138.625,3.625,0.265328045789437,634466,624897,-9569,-0.151853226761984,4699.74814814815,4507.82326420198,-378.827463684816,"Spillover",130.318879,46.799778
"Mito urban area","Japan",227,231.75,4.75,0.207306452960649,553591,624427,70836,1.21136108270127,2438.7268722467,2694.39913700108,67.0562990569767,"Fragmented",140.4709965,36.3665027
"Yangjiang urban area","China",73.3125,101.3125,28,3.28767468710763,459785,622483,162698,3.07593184099773,6271.57715260017,6144.18753855645,172.097997516872,"Spillover",111.982232,21.857958
"Jingzhou urban area","China",88.6875,96.25,7.5625,0.821657409570018,596963,618009,21046,0.347079787178376,6731.08386187456,6420.87272727273,359.331939560962,"Spillover",112.239741,30.335165
"Fuyang urban area","China",52.9375,66.875,13.9375,2.36465727900513,508038,616993,108955,1.96201368393659,9596.93978748524,9226.06355140187,127.919783396815,"Contained",115.814205,32.890124
"Yiyang urban area","China",42.9375,85.75,42.8125,7.16173524716149,357388,613929,256541,5.55962002136776,8323.44687045124,7159.52186588921,166.883656023793,"Spillover",112.35518,28.55386
"Suzhou urban area","China",186.5625,193.875,7.3125,0.385213225347567,573473,612831,39358,0.665991410056369,3073.89212730318,3160.95938104449,185.794501753138,"Contained",120.58529,31.298979
"Zigong urban area","China",37.6875,51.875,14.1875,3.24667587365254,413510,608639,195129,3.94111614508389,10972.0729684909,11732.8,72.7083109122683,"Contained",104.778442,29.33903
"Hai Du'o'ng urban area","Vietnam",129.625,152.5,22.875,1.63846733053704,396779,607919,211140,4.35895072787636,3060.97589199614,3986.35409836066,108.340437624325,"Fragmented",106.3206861,20.9385958
"Linqing urban area","China",137.1875,139.25,2.0625,0.149334147933456,569018,605440,36422,0.622362661812454,4147.73940774487,4347.86355475763,56.6278622810389,"Spillover",115.704881,36.838277
"Toyama urban area","Japan",228.1875,247.6875,19.5,0.823373341101191,522349,605029,82680,1.48025325867464,2289.12188441523,2442.71107746657,235.849056603774,"Fragmented",137.2136768,36.6959518
"Lufeng urban area","China",85.375,95.625,10.25,1.14026172657001,473773,604998,131225,2.47510292785089,5549.317715959,6326.77647058824,78.1101162126119,"Contained",115.65226,22.917576
"Changwon urban area","South Korea",64.6875,69.5,4.8125,0.720168521128981,552104,603503,51399,0.894119350937598,8534.94106280193,8683.4964028777,93.6302262689936,"Spillover",128.655142,35.239455
"Zunyi urban area","China",40.375,60.625,20.25,4.14871636463879,521195,600097,78902,1.4196532767489,12908.8544891641,9898.50721649485,256.647486755722,"Spillover",106.927389,27.725654
"Jixi urban area","China",125,135.8125,10.8125,0.833066050408823,600426,598560,-1866,-0.0311214831168919,4803.408,4407.25264611137,-5794.48017148982,"Fragmented",130.969333,45.295075
"Kuching urban area","Malaysia",192.875,243.6875,50.8125,2.36599952651666,388354,595475,207121,4.36709013344613,2013.50097213221,2443.60092331367,245.327610430618,"Spillover",110.3785438,1.6076812
"Magelang urban area","Indonesia",26.5,26.5,0,4.79707749611854e-14,448740,592931,144191,2.82552541660816,16933.5849056604,22374.7547169811,0,"Spillover",110.2176941,-7.4797342
"Yulin urban area","China",61.375,74.25,12.875,1.92260035126727,472276,588669,116393,2.22745029280249,7694.92464358452,7928.20202020202,110.616617837842,"Contained",110.164756,22.636379
"Tokushima urban area","Japan",133.5,150.8125,17.3125,1.22682314186888,499584,587043,87459,1.62630589026316,3742.20224719101,3892.53543307087,197.949896522942,"Fragmented",134.5548438,34.0702703
"Niigata urban area","Japan",191.1875,198.8125,7.625,0.391841173948931,503097,574967,71870,1.34425143188155,2631.43249427918,2892.00628733103,106.094336997356,"Spillover",139.0364126,37.9161924
"Jambi urban area","Indonesia",62.9375,62.9375,0,5.683724784394e-14,431346,573476,142130,2.88900023435379,6853.56107249255,9111.83316782522,0,"Spillover",102.4380581,-1.4851831
"Shaoguan urban area","China",109,147.375,38.375,3.06227669795268,461333,573407,112074,2.19857655274326,4232.4128440367,3890.80237489398,342.407694915859,"Contained",113.597547,24.810329
"Langfang urban area","China",126,144.3125,18.3125,1.36624072373405,437952,568551,130599,2.6441709679577,3475.80952380952,3939.72109138155,140.219297238111,"Spillover",116.683752,39.538047
"Toyohashi urban area","Japan",224.6875,235.5625,10.875,0.473776017390781,508605,558657,50052,0.943059093953458,2263.61057023644,2371.58715839745,217.274035003596,"Fragmented",137.3914662,34.7691995
"Zoucheng urban area","China",104.625,117.625,13,1.17807598284275,506430,558469,52039,0.982929330323959,4840.43010752688,4747.87672688629,249.81264051961,"Contained",117.003743,35.405185
"Wu'an urban area","China",145.3125,171.3125,26,1.65964945709166,454228,558172,103944,2.08205742174467,3125.87010752688,3258.20941262313,250.134687908874,"Contained",114.203697,36.696506
"Pingdu urban area","China",172.625,182.5,9.875,0.557835754418382,519413,556773,37360,0.697000708318362,3008.9094858798,3050.81095890411,264.320128479657,"Contained",119.98842,36.776358
"Renqiu urban area","China",104.3125,105.4375,1.125,0.107329145389006,519950,556074,36124,0.673948136172556,4984.54164170162,5273.96799051571,31.1427305946185,"Contained",116.082918,38.683592
"Dengzhou urban area","China",197.75,199.875,2.125,0.106942788126618,483015,555884,72869,1.41503750421284,2442.55372945638,2781.15822388993,29.1619207070222,"Contained",112.087455,32.687734
"Heyuan urban area","China",91.125,143.5,52.375,4.64571169654322,251874,551008,299134,8.14276177921428,2764.04938271605,3839.77700348432,175.088756209592,"Spillover",114.700961,23.743686
"Linhai urban area","China",54.125,115.0625,60.9375,7.8334722208491,319452,543022,223570,5.44868818496361,5902.11547344111,4719.36556219446,272.565639397057,"Contained",121.145046,28.858457
"Ponorogo urban area","Indonesia",31.25,54.9375,23.6875,5.80395133244593,327844,541877,214033,5.15340682391954,10491.008,9863.51763367463,110.672186064766,"Contained",111.4696322,-7.8650759
"Jiujiang urban area","China",55,75.625,20.625,3.23578626792967,383667,541149,157482,3.49902090277161,6975.76363636364,7155.68925619835,130.967348649369,"Spillover",116.00193,29.705077
"Bacolod urban area","Philippines",47.5625,78.625,31.0625,5.15492027070165,338784,538628,199844,4.74579648104517,7122.92247043364,6850.5945945946,155.433738315886,"Spillover",122.9689565,10.6407389
"Changhua urban area","Taiwan",102.1875,118.8125,16.625,1.51879075252107,494207,537015,42808,0.834175710341814,4836.27645259939,4519.85270910047,388.361988413381,"Contained",120.5624474,24.0716583
"Bozhou urban area","China",218.5,221.3125,2.8125,0.127978976653511,504236,533051,28815,0.5572739459491,2307.71624713959,2408.58966393674,97.6054138469547,"Contained",115.778676,33.844582
"Nha Trang urban area","Vietnam",61.625,63.875,2.25,0.359247915613317,381913,531538,149625,3.36106788542064,6197.37119675456,8321.53424657534,15.0375939849624,"Spillover",109.1967488,12.2387911
"Purwakarta urban area","Indonesia",40,43,3,0.725828070542875,378305,529361,151056,3.4167739709797,9457.625,12310.7209302326,19.8601843025103,"Contained",107.4462717,-6.5406665
"Nam Ha urban area","Vietnam",64.375,77.9375,13.5625,1.93021091962469,349694,526333,176639,4.17349668967853,5432.13980582524,6753.27024859663,76.7808921019707,"Fragmented",105.92299,20.5835196
"Gaocheng urban area","China",107.5625,113.3125,5.75,0.522132531002473,507709,525873,18164,0.352131430297233,4720.13015688553,4640.90899062328,316.560229024444,"Contained",114.847075,38.021567
"Fengrun urban area","China",127.4375,150.8125,23.375,1.69837407869981,466616,522186,55570,1.13152583447411,3661.52820009809,3462.48487360133,420.640633435307,"Contained",118.162216,39.832582
"Wuchuan urban area","China",58.625,70.25,11.625,1.82545216545032,422843,520278,97435,2.09527227218523,7212.67377398721,7406.09252669039,119.310309437061,"Contained",110.778411,21.441808
"Shangrao urban area","China",52.875,73.6875,20.8125,3.3747195168636,358369,518442,160073,3.76167509679992,6777.66430260047,7035.6844783715,130.018803920711,"Contained",117.943433,28.454863
"Vinh urban area","Vietnam",79.4375,84.5625,5.125,0.627162046693649,361060,516865,155805,3.65249841082839,4545.20849724626,6112.22468588322,32.8936812040692,"Fragmented",105.6813333,18.6795848
"Kuningan urban area","Indonesia",43.8125,50,6.1875,1.32980266925833,351896,516544,164648,3.91286024046409,8031.86305278174,10330.88,37.5801710315339,"Contained",108.4928912,-6.9810103
"Jepara urban area","Indonesia",34.25,47.8125,13.5625,3.39227409606472,300849,515577,214728,5.53450957425834,8783.91240875912,10783.3098039216,63.1613017398756,"Contained",110.6786933,-6.582711
"Nanchong urban area","China",35.4375,56.0625,20.625,4.69379398094667,335005,515455,180450,4.40323283850186,9453.40388007055,9194.29208472687,114.297589359933,"Fragmented",106.110698,30.837793
"Zaozhuang urban area","China",87.9375,98.8125,10.875,1.17280181849873,444724,515331,70607,1.48446582914188,5057.2736318408,5215.24098671727,154.02155593638,"Spillover",117.323725,34.810488
"Qingkou urban area","China",127.3125,141.5625,14.25,1.06661442097606,523659,514848,-8811,-0.169546084513375,4113.17820324006,3636.89536423841,-1617.29656111679,"Contained",102.74674,23.115359
"Kota Bharu urban area","Malaysia",78.9375,81.8125,2.875,0.358377076087898,359373,510515,151142,3.57294047363693,4552.6270783848,6240.06111535523,19.0218470048034,"Spillover",102.2776838,6.1167855
"Qingzhou urban area","China",108.625,130.6875,22.0625,1.86627516619271,432006,508340,76334,1.64041990992179,3977.04027617952,3889.73696795791,289.025860036157,"Contained",118.479622,36.684528
"Chongju urban area","South Korea",56.4375,67.5,11.0625,1.80605306004862,429729,505351,75622,1.63419383099774,7614.24584717608,7486.68148148148,146.28679484806,"Spillover",127.4890319,36.6424341
"Huludao urban area","China",151.125,174.375,23.25,1.44129637855123,409188,503681,94493,2.09941835036195,2707.61290322581,2888.49318996416,246.049971955595,"Spillover",120.83694,40.711041
"Qianan urban area","China",134.4375,218.6875,84.25,4.98574954187321,363478,502660,139182,3.29507604799039,2703.6950255695,2298.53100885967,605.322527338305,"Contained",118.701144,39.999175
"Tongliao urban area","China",73.9375,100.4375,26.5,3.11055232404675,390464,502161,111697,2.54776468634903,5281.00084530854,4999.73615432483,237.248986096314,"Contained",122.243444,43.65289
"Qitaihe urban area","China",135.6875,145.125,9.4375,0.674675674854977,382435,501774,119339,2.75312817940981,2818.49838783971,3457.52971576227,79.081440266803,"Spillover",131.003138,45.771727
"Yushu urban area","China",359.5625,361.25,1.6875,0.0468332113569264,497588,501590,4002,0.0801383690187358,1383.87067616896,1388.48442906574,421.664167916042,"Contained",97.091934,33.011674
"Songyuan urban area","China",189.25,201.3125,12.0625,0.619808258942624,425169,497559,72390,1.58469931874399,2246.59973579921,2471.5752871779,166.632131509877,"Spillover",124.825118,45.141789
"Danyang urban area","China",32.125,91.5,59.375,11.0344628109006,252324,495893,243569,6.98993944418835,7854.44357976654,5419.5956284153,243.770759004635,"Contained",119.606439,32.010214
"Hejian urban area","China",100.4375,101.75,1.3125,0.129916126228509,459790,494716,34926,0.73482666785869,4577.87181082763,4862.07371007371,37.579453702113,"Contained",116.099518,38.446624
"Huicheng urban area","China",55.125,66.5625,11.4375,1.90326574122056,379380,494343,114963,2.68225453652746,6882.1768707483,7426.74929577465,99.4885310926124,"Contained",114.382541,23.084122
"Dezhou urban area","China",74.6875,82.6875,8,1.0227517134902,383837,489380,105543,2.45895875833399,5139.24016736402,5918.42781557067,75.7984897150924,"Contained",116.357465,37.434093
"Yongkang urban area","China",87.75,128.125,40.375,3.85769395208311,320031,487909,167878,4.30729381599623,3647.07692307692,3808.07024390244,240.50203123697,"Contained",120.047651,28.888555
"Liaoyuan urban area","China",86.75,95.5625,8.8125,0.972196066665189,476911,487379,10468,0.217357518026821,5497.53314121037,5100.10725964683,841.851356515094,"Fragmented",125.14366,42.887767
"Hue urban area","Vietnam",53.625,62.25,8.625,1.50260892116757,338503,484141,145638,3.64322879493063,6312.41025641026,7777.36546184739,59.2221810241833,"Spillover",107.5623501,16.4498
"Tongling urban area","China",36.8125,83,46.1875,8.46965979245352,312737,484001,171264,4.46401155927516,8495.40237691002,5831.33734939759,269.685981875934,"Spillover",117.811267,30.945516
"Dongyang urban area","China",93,143.8125,50.8125,4.45551358574389,355321,483297,127976,3.12389840996453,3820.65591397849,3360.60495436767,397.047102581734,"Contained",120.241566,29.289648
"Nankang urban area","China",46.0625,108.5625,62.5,8.95150482848602,270360,483239,212879,5.97952139843916,5869.41655359566,4451.25158318941,293.594013500627,"Contained",114.765403,25.661471
"Dongsheng urban area","China",32.8125,111.625,78.8125,13.0244012732697,161849,482313,320464,11.5377539345366,4932.54095238095,4320.83314669653,245.932460432373,"Contained",109.963339,39.822507
"Yuncheng urban area","China",157.25,162.875,5.625,0.35207974842633,418262,481974,63712,1.42792016123094,2659.85373608903,2959.1650038373,88.287920642893,"Contained",111.007529,35.026412
"Laiwu urban area","China",88.6875,108.1875,19.5,2.00735043672889,429151,480770,51619,1.14227618415555,4838.91190979563,4443.85904101675,377.767876169627,"Contained",117.676724,36.213814
"Yanji urban area","China",93.5,109.0625,15.5625,1.55150961101143,383347,479099,95752,2.25470957028807,4099.9679144385,4392.88481375358,162.52924220904,"Spillover",129.508946,42.891255
"Laizhou urban area","China",174.1875,184.25,10.0625,0.563192256352161,463395,477541,14146,0.301154541744483,2660.32292787944,2591.81004070556,711.331825250954,"Contained",119.942327,37.177017
"Shengzhou urban area","China",80.1875,131.9375,51.75,5.10567307573539,354534,477522,122988,3.02284750761159,4421.31254871395,3619.30459497868,420.772758317885,"Spillover",120.831026,29.56141
"Shiyan urban area","China",47.6875,55.875,8.1875,1.59709684598305,335976,476957,140981,3.56597477949231,7045.36828309305,8536.14317673378,58.0752016229137,"Spillover",110.798266,32.629398
"Qujing urban area","China",63.375,105,41.625,5.17853870775706,299740,476271,176531,4.73960784482738,4729.62524654832,4535.91428571429,235.794279758229,"Spillover",103.796167,25.49
"Wuwei urban area","China",43.75,61.75,18,3.50608696773789,339230,473692,134462,3.3951528994162,7753.82857142857,7671.12550607287,133.866817390787,"Contained",102.638201,37.928267
"Jati urban area","Indonesia",51.25,54,2.75,0.524052662827912,350187,470620,120433,2.99995524027142,6832.91707317073,8715.18518518518,22.8342729982646,"Contained",106.8974964,-6.1970255
"Fenghuang urban area","China",100.75,102.375,1.625,0.160131487224401,430252,466914,36662,0.821092656078642,4270.49131513648,4560.82051282051,44.3238230320223,"Contained",109.598479,27.947978
"Zhumadian urban area","China",28.6875,38,9.3125,2.85113516995105,190390,465514,275124,9.35253651350994,6636.68845315904,12250.3684210526,33.8483738241666,"Contained",114.022298,33.011529
"Balikpapan urban area","Indonesia",52.5,56.75,4.25,0.781462470715893,337265,462531,125266,3.20885431700762,6424.09523809524,8150.32599118943,33.9278016381141,"Contained",116.8528526,-1.2379274
"Guiping urban area","China",47.3125,72.875,25.5625,4.41436871368974,306345,460121,153776,4.15164311820438,6474.92734478203,6313.83876500858,166.232051815628,"Contained",110.079379,23.394326
"Akesu urban area","China",178.3125,203.4375,25.125,1.32693875251846,361333,459563,98230,2.43390821460778,2026.40308447249,2258.9886328725,255.777257456989,"Spillover",80.263387,41.167548
"Mawlamyine urban area","Myanmar",67.0625,70.125,3.0625,0.447541925392602,355508,459143,103635,2.59114075337788,5301.14445479963,6547.49376114082,29.5508274231678,"Fragmented",97.6439611,16.4543173
"Longkou urban area","China",143.4375,164.25,20.8125,1.36412297140433,411317,458007,46690,1.08100368670846,2867.56949891068,2788.47488584475,445.75926322553,"Contained",120.477813,37.646108
"Haining urban area","China",18.4375,82.875,64.4375,16.2176664166581,150350,457800,307450,11.7782318729064,8154.57627118644,5523.98190045249,209.586924703204,"Contained",120.680757,30.510659
"Meizhou urban area","China",53.625,68.25,14.625,2.44093531625925,348206,457284,109078,2.76257438482323,6493.35198135198,6700.13186813187,134.07836593997,"Spillover",116.122239,24.288615
"Taizhou urban area","China",25.9375,77.125,51.1875,11.513309825857,194775,457132,262357,8.90575773577413,7509.39759036145,5927.15721231767,195.10628647225,"Contained",121.42076,28.65638
"Shangyu urban area","China",61.6875,142.75,81.0625,8.7521607934155,262240,456764,194524,5.70591579555338,4251.10435663627,3199.74781085814,416.722358166602,"Contained",120.868122,30.033121
"Linzhou urban area","China",83.5625,97.5625,14,1.56104236663782,527261,455636,-71625,-1.44940784165581,6309.78010471204,4670.19602818706,-195.462478184991,"Contained",113.82013,36.083047
"Sanya urban area","China",58.875,82.5,23.625,3.43137611415766,270525,452888,182363,5.28787021576242,4594.90445859873,5489.55151515152,129.549305506051,"Contained",109.511909,18.252847
"Matsuyama urban area","Japan",114.1875,125.5625,11.375,0.954141263204073,391528,451335,59807,1.43168000805314,3428.8166392994,3594.50472872076,190.195127660642,"Spillover",132.7655752,33.8391574
"Tonghua urban area","China",75.125,91.1875,16.0625,1.95653849908911,390346,450378,60032,1.44081819656871,5195.9534109817,4939.0322138451,267.565631663113,"Fragmented",125.939697,41.728401
"Pontianak urban area","Indonesia",43.125,43.5,0.375,0.0866181192758632,336557,449560,113003,2.93733099349199,7804.22028985507,10334.7126436782,3.31849596913356,"Contained",109.3425039,-0.0263303
"Leiyang urban area","China",45.5,69.4375,23.9375,4.31776360701828,351786,449138,97352,2.47315905305382,7731.56043956044,6468.23402340234,245.886062946832,"Contained",112.859795,26.422275
"Xinyu urban area","China",48.0625,86.375,38.3125,6.03718022803243,291990,445156,153166,4.3072331140936,6075.21456436931,5153.75976845152,250.137106146273,"Contained",114.917347,27.817809
"Okayama urban area","Japan",121.375,128.4375,7.0625,0.567177174441125,385758,444509,58751,1.42769633147999,3178.23274974253,3460.89732360097,120.210719817535,"Spillover",133.9195019,34.6551456
"Peicheng urban area","China",88.125,96,7.875,0.859592765768194,430469,441257,10788,0.247828189229691,4884.75460992908,4596.42708333333,729.977753058954,"Contained",113.77125,33.675553
"Shucheng urban area","China",59.125,70.75,11.625,1.8111936116947,416245,440450,24205,0.56682945664799,7040.08456659619,6225.44169611307,480.272670935757,"Contained",116.948668,31.462026
"Shimizu urban area","Japan",105.375,107,1.625,0.153151338458106,394597,439863,45266,1.09190144081437,3744.69276393832,4110.86915887851,35.8989086731763,"Spillover",138.4895275,35.0158879
"Kendari urban area","Indonesia",111.875,118.9375,7.0625,0.614037211209254,319891,437152,117261,3.17228396864561,2859.36089385475,3675.47661586968,60.2288911061649,"Spillover",122.5129742,-3.9984597
"Chenzhou urban area","China",42.75,68.9375,26.1875,4.89431255474927,274959,437069,162110,4.74377126399421,6431.78947368421,6340.07615593835,161.54154586392,"Contained",113.014718,25.77051
"Beihai urban area","China",64.1875,95.75,31.5625,4.08037113131655,302233,434079,131846,3.68661329397245,4708.59591041869,4533.46214099217,239.38913580996,"Spillover",109.120161,21.481291
"Kisaran urban area","Indonesia",26.375,27.75,1.375,0.509485972174294,316700,432338,115638,3.16147299022444,12007.5829383886,15579.7477477477,11.8905550078694,"Spillover",99.6278715,2.9831633
"Tieling urban area","China",98.25,136.3125,38.0625,3.32854461579453,384129,432085,47956,1.1833862044014,3909.70992366412,3169.81201283815,793.696304946201,"Spillover",123.726035,42.223828
"Yichun urban area","China",34.0625,51.875,17.8125,4.29612163427538,291154,431362,140208,4.00923744506411,8547.64036697248,8315.41204819277,127.043392673742,"Contained",114.416786,27.815743
"Zhucheng urban area","China",89.4375,106.25,16.8125,1.73746890800269,362735,431269,68534,1.74565640437542,4055.73724668064,4059.00235294118,245.316193422243,"Contained",119.410103,35.995654
"Danzhou urban area","China",54.6875,64.9375,10.25,1.7327418296151,344051,430116,86065,2.25776053985446,6291.21828571429,6623.53801732435,119.096032068785,"Contained",109.580811,19.521134
"Quzhou urban area","China",73,105,32,3.70188338057649,268182,429560,161378,4.82368449435177,3673.72602739726,4091.04761904762,198.292208355538,"Spillover",118.859457,28.97008
"Jixian urban area","China",92.625,122.125,29.5,2.80343724147549,379939,427120,47181,1.17742056934629,4101.90553306343,3497.40020470829,625.251690299061,"Contained",117.408306,40.046061
"Chon Buri urban area","Thailand",82.5,125,42.5,4.24268917314127,277602,426783,149181,4.39470036779583,3364.87272727273,3414.264,284.888826325068,"Fragmented",100.9846717,13.3611431
"Chaoyang urban area","China",55.125,84.6875,29.5625,4.38715732139536,241121,425482,184361,5.84360310447481,4374.07709750567,5024.14169741697,160.351158867656,"Spillover",120.449388,41.57365
"Binzhou urban area","China",139.875,161.9375,22.0625,1.47539092744567,337816,419732,81916,2.19489141538169,2415.12779267203,2591.93824778078,269.330777870013,"Contained",117.9707,37.38198
"Hegang urban area","China",93,102.375,9.375,0.965057424799356,421273,419696,-1577,-0.0374973670351787,4529.81720430108,4099.59462759463,-5944.83195941661,"Fragmented",130.297964,47.349916
"Wuzhou urban area","China",39.1875,55,15.8125,3.44786051893644,285510,419275,133765,3.91727848227015,7285.74162679426,7623.18181818182,118.211041752327,"Contained",111.279115,23.476963
"Zouping urban area","China",79.375,118.375,39,4.07768541280576,280152,419252,139100,4.11376253166828,3529.47401574803,3541.72756071806,280.373831775701,"Contained",117.743109,36.862989
"Tongxiang urban area","China",22.4375,66.5,44.0625,11.4768575920575,188194,419251,231057,8.33950161363833,8387.47632311978,6304.52631578947,190.699697477246,"Contained",120.565099,30.630173
"Liu'an urban area","China",63.8125,80.8125,17,2.389937589566,326150,418976,92826,2.53619006509869,5111.06758080313,5184.54447022428,183.138344860276,"Spillover",116.521855,31.7337
"Yibin urban area","China",37.625,57.375,19.75,4.30968142015809,297737,418199,120462,3.45584164777065,7913.27574750831,7288.87145969499,163.952117680264,"Spillover",104.643215,28.751769
"Zhoukou urban area","China",27.1875,31.9375,4.75,1.62326975151399,253859,417814,163955,5.10879139091115,9337.34252873563,13082.2387475538,28.9713640938062,"Contained",114.696951,33.626149
"Kofu urban area","Japan",103.5,110.875,7.375,0.690692634090823,359246,417783,58537,1.52099890282891,3470.97584541063,3768.05411499436,125.988690913439,"Fragmented",138.5682015,35.66228
"Deyang urban area","China",35.8125,60.375,24.5625,5.3615741220665,255837,411996,156159,4.88006904203289,7143.79057591623,6823.95031055901,157.291606631702,"Contained",104.397894,31.126856
"Sui'an urban area","China",81.5625,123.5,41.9375,4.2359773545532,333520,409821,76301,2.08154457747852,4089.13409961686,3318.38866396761,549.632377033066,"Contained",108.93977,34.341575
"Hamhung urban area","North Korea",29,29.5,0.5,0.171090526710053,376821,409398,32577,0.832622322064918,12993.8275862069,13877.8983050847,15.3482518341161,"Contained",127.6124553,39.9838002
"Weinan urban area","China",81.9375,85.5625,3.625,0.433841795687196,396169,407020,10851,0.270579771992398,4835.01449275362,4756.99050401753,334.070592572113,"Contained",109.509786,34.499995
"Chengde urban area","China",20.375,39.3125,18.9375,6.79312732031867,244114,404184,160070,5.17163924587939,11981.0552147239,10281.3100158983,118.307615418255,"Spillover",117.96275,40.952942
"Lishi urban area","China",66.125,76.625,10.5,1.48467850590348,300405,402471,102066,2.96811055431041,4542.98676748582,5252.47634584013,102.874610546117,"Fragmented",111.150733,37.517641
"Rongcheng urban area","China",116.3125,133.125,16.8125,1.35923475326832,386671,402240,15569,0.395527384448087,3324.41483073616,3021.52112676056,1079.8702549939,"Contained",122.486658,37.16516
"Pematangsiantar urban area","Indonesia",20.5,37.375,16.875,6.18978317454054,216614,401157,184543,6.35619344649847,10566.5365853659,10733.2976588629,91.4421029245217,"Spillover",99.0681668,2.970042
"Xinji urban area","China",111.5,113.1875,1.6875,0.150324321338757,401106,400071,-1035,-0.0258336642393979,3597.36322869955,3534.58641634456,-1630.4347826087,"Contained",115.218057,37.943315
"Zhangqiu urban area","China",42.75,59.4375,16.6875,3.35046655940428,279674,397828,118154,3.58677810178241,6542.08187134503,6693.21556256572,141.235167662542,"Contained",117.526228,36.681259
"Sanmenling urban area","China",63.875,65.375,1.5,0.232388342716478,357265,397812,40547,1.08081635798579,5593.18982387476,6085.07839388145,36.9941056058401,"Spillover",117.936692,28.519267
"Can Tho urban area","Vietnam",29.25,34,4.75,1.51618877582956,267320,397353,130033,4.04339244399717,9139.1452991453,11686.8529411765,36.5291887443957,"Fragmented",105.7468535,10.0451618
"Luzhou urban area","China",32.4375,52.75,20.3125,4.98264461671362,240307,397189,156882,5.15334175955707,7408.30828516378,7529.64928909953,129.476294284877,"Spillover",105.442258,28.871811
"Bazhou urban area","China",82.75,117.4375,34.6875,3.56282281444831,305142,396820,91678,2.66186662106149,3687.5166163142,3378.98882384247,378.362311568752,"Contained",116.391386,39.125898
"Feicheng urban area","China",52.875,64.9375,12.0625,2.07620571034272,334695,394288,59593,1.65211837273243,6329.92907801418,6071.80750721848,202.414713137449,"Contained",116.768358,36.182571
"Zhuozhou urban area","China",107.5,140.1875,32.6875,2.69045607295115,329378,394244,64866,1.81389459443802,3063.98139534884,2812.26214890771,503.923473005889,"Contained",115.974422,39.485283
"Ezhou urban area","China",34.3125,51.1875,16.875,4.08092798331179,281083,391710,110627,3.37440143097356,8191.85428051002,7652.45421245421,152.539615103004,"Contained",114.894843,30.39194
"Bangtou urban area","China",58.9375,80.375,21.4375,3.15087767484079,319879,388525,68646,1.96316879593987,5427.42735949099,4833.90357698289,312.290592314192,"Contained",118.754551,25.42239
"Loudi urban area","China",40.125,66.75,26.625,5.22129013857548,260116,386385,126269,4.03640080283699,6482.64174454829,5788.5393258427,210.859355819718,"Contained",111.993497,27.700063
"Jingdezhen urban area","China",49.375,67.4375,18.0625,3.16667538542886,320772,386228,65456,1.87432174442547,6496.64810126582,5727.19925857275,275.948728917135,"Spillover",117.178443,29.268783
"Sungai Petani urban area","Malaysia",88.8125,119.375,30.5625,3.0015900287395,252428,385959,133531,4.33748512962411,2842.257565095,3233.16439790576,228.87943623578,"Contained",100.4894179,5.643589
"Shuangyashan urban area","China",126.8125,132.6875,5.875,0.45389823023958,348673,385403,36730,1.0065824987327,2749.51601774273,2904.59161563825,159.950993738089,"Spillover",131.159133,46.646509
"Xinyang urban area","China",74,84.9375,10.9375,1.38805119082453,350969,383335,32366,0.886015889252226,4742.82432432432,4513.14201618837,337.931780263239,"Spillover",114.091023,32.146984
"Jingjiang urban area","China",20.1875,60.3125,40.125,11.5661583980445,204681,382924,178243,6.46417809302019,10138.9969040248,6348.99896373057,225.114029723467,"Contained",120.277138,31.982751
"Singaraja urban area","Indonesia",35,37.3125,2.3125,0.641854409956279,274948,382463,107515,3.3555699532666,7855.65714285714,10250.2646566164,21.5086267032507,"Contained",115.0916254,-8.1149145
"Beiliu urban area","China",27.3125,35.1875,7.875,2.56582927822287,291944,382120,90176,2.72828113547485,10689.0251716247,10859.5381882771,87.3292228530873,"Contained",110.354215,22.708311
"Gaomi urban area","China",87.25,96.75,9.5,1.0388870534184,331419,381404,49985,1.41467053042022,3798.49856733524,3942.16020671835,190.057017105132,"Contained",119.755597,36.382595
"Laiyang urban area","China",118.3125,121.0625,2.75,0.230039307315466,382390,381367,-1023,-0.0267850533620308,3232.03380876915,3150.16623644812,-2688.17204301075,"Contained",120.711673,36.978941
"Chiai urban area","Taiwan",81.6875,86.125,4.4375,0.530388988086482,361810,379409,17599,0.476085369511911,4429.19663351186,4405.32946298984,252.145008239104,"Contained",120.7120023,22.6158015
"Hanzhong urban area","China",24.1875,51.875,27.6875,7.92864202539616,227323,378203,150880,5.22238927619955,9398.3669250646,7290.66024096386,183.506760339343,"Spillover",107.023323,33.06748
"Nagano urban area","Japan",104.8125,108,3.1875,0.300031070365184,321646,377665,56019,1.6185183465942,3068.77519379845,3496.89814814815,56.9003373855299,"Spillover",138.1947709,36.6485829
"Lumajang urban area","Indonesia",35.9375,37.0625,1.125,0.308719141034188,278453,376948,98495,3.0749076133696,7748.25739130435,10170.6037099494,11.4218995888116,"Contained",113.1441558,-8.0943571
"Qinzhou urban area","China",60.375,93.5625,33.1875,4.47790785916901,241164,376635,135471,4.55885523577737,3994.4347826087,4025.49098196393,244.978630112718,"Spillover",108.654147,21.979934
"Hengshui urban area","China",86.0625,92.3125,6.25,0.703521001190335,296850,375430,78580,2.37624399841977,3449.23747276688,4066.94651320244,79.5367778060575,"Contained",115.670177,37.73892
"Liuyang urban area","China",42.8125,55.6875,12.875,2.66412576013424,298126,374050,75924,2.29466409637043,6963.52700729927,6716.94725028058,169.577472209051,"Contained",113.643076,28.162833
"Pizhou urban area","China",39.4375,53.75,14.3125,3.14469813772161,294693,373517,78824,2.39860856002175,7472.40570522979,6949.15348837209,181.575408505024,"Contained",118.012531,34.338888
"Fuyang urban area","China",31.875,80.375,48.5,9.69001080147852,186121,372645,186524,7.18894393533014,5839.09019607843,4636.32970451011,260.020158263816,"Contained",115.814205,32.890124
"Taihe urban area","China",99,102,3,0.29897567494809,365395,372460,7065,0.191690384438919,3690.85858585859,3651.56862745098,424.628450106157,"Contained",114.908873,26.789958
"Huaihua urban area","China",30.1875,46.375,16.1875,4.38682236659149,187449,372097,184648,7.09699963449295,6209.49068322981,8023.65498652291,87.6668038646506,"Contained",110.001923,27.569517
"Chonju urban area","South Korea",36.3125,42.3125,6,1.54095733222253,311329,371836,60507,1.79189179750188,8573.60413080895,8787.85228951256,99.1620804204472,"Contained",127.1479532,35.8242238
"Ansu urban area","China",125.125,140.1875,15.0625,1.14316045194707,351659,370425,18766,0.521244165504765,2810.46153846154,2642.35399019171,802.648406692955,"Contained",80.263387,41.167548
"Kuantan urban area","Malaysia",117.4375,139.75,22.3125,1.75470555358288,256068,370028,113960,3.74995759755004,2180.4619478446,2647.78533094812,195.792383292383,"Contained",103.2201828,3.7633859
"Jining urban area","China",76.9375,87.3125,10.375,1.27303733044031,294489,368185,73696,2.25856675077366,3827.63931762794,4216.86471009306,140.781046461138,"Spillover",116.587282,35.414982
"Gongyi urban area","China",44.375,60.0625,15.6875,3.07337671437921,294031,366454,72423,2.2262982173932,6626.05070422535,6101.21123829344,216.609364428427,"Contained",113.022497,34.747834
"Shenzhou urban area","China",147.125,147.4375,0.3125,0.0212201670335634,367132,365602,-1530,-0.0417527449914182,2495.37468139337,2479.70835099618,-204.248366013072,"Contained",115.559574,38.001536
"Taixing urban area","China",23.6875,48.5,24.8125,7.42917760713493,244869,365396,120527,4.08376611080027,10337.4775725594,7533.9381443299,205.866735254341,"Contained",120.051744,32.171854
"Bianzhuang urban area","China",48.0625,58.0625,10,1.90815463883664,305978,363517,57539,1.738060095212,6366.2522756827,6260.78794402583,173.795165018509,"Contained",117.100087,39.138304
"Kagoshima urban area","Japan",76.625,81.125,4.5,0.572309275478103,320507,361543,41036,1.21205523390129,4182.79934747145,4456.61633281972,109.659810897748,"Contained",130.5571158,31.5965535
"Meihekou urban area","China",112.3125,122.5,10.1875,0.872038952866802,350926,361232,10306,0.289869673703979,3124.54980523094,2948.83265306122,988.50184358626,"Spillover",125.710896,42.539287
"Jinzhou urban area","China",89.75,92.4375,2.6875,0.295482823467938,340981,356611,15630,0.449193810177915,3799.23119777159,3857.86071670047,171.944977607166,"Contained",121.126846,41.095685
"Haobi urban area","China",21.875,25.125,3.25,1.39482753992813,283250,355853,72603,2.30811224744384,12948.5714285714,14163.3034825871,44.7639904687134,"Spillover",118.7769332,34.1117006
"Shizuishan urban area","China",34.75,38.3125,3.5625,0.980744500604323,258038,354918,96880,3.23915371790915,7425.55395683453,9263.76508972268,36.7722956234517,"Spillover",106.383304,38.983236
"Zhongxing urban area","China",94,102.25,8.25,0.844808663360067,468207,354759,-113448,-2.73657648499874,4980.92553191489,3469.52567237164,-72.7205415697059,"Contained",109.8891103,21.220078
"Longyan urban area","China",55.25,85.1875,29.9375,4.4249699789388,227271,354553,127282,4.54751492046491,4113.50226244344,4162.03081438004,235.2060778429,"Contained",117.017537,25.075123
"Jiangdu urban area","China",30.6875,66.125,35.4375,7.97927757953852,198517,353391,154874,5.93653849467971,6468.98574338086,5344.28733459357,228.815036739543,"Contained",119.569989,32.434672
"Anpu urban area","China",32.3125,38.25,5.9375,1.70120248154225,255272,352195,96923,3.27090918471139,7900.10058027079,9207.71241830065,61.2599692539439,"Contained",116.682305,23.450032
"Yulin urban area","China",33.5625,41.875,8.3125,2.23746009840092,231470,351475,120005,4.26534216852747,6896.6852886406,8393.43283582089,69.267947168868,"Contained",110.164756,22.636379
"Zhaozhou urban area","China",79.75,80.125,0.375,0.0469227410344785,336314,351069,14755,0.430298516508006,4217.10344827586,4381.51638065523,25.4151135208404,"Contained",125.269281,45.708049
"Zamboanga urban area","Philippines",35.1875,39.125,3.9375,1.06635287375262,262134,350889,88755,2.9590768415202,7449.63410301954,8968.4089456869,44.3636978198411,"Contained",122.0790267,6.9214424
"Laixi urban area","China",123.8125,132.5,8.6875,0.68044780728464,323969,350267,26298,0.783532561681327,2616.60979303382,2643.52452830189,330.348315461252,"Contained",120.51769,36.889084
"Taishan urban area","China",50.375,69.875,19.5,3.32625196677395,277635,348808,71173,2.30838338327593,5511.36476426799,4991.885509839,273.980301518834,"Contained",112.794065,22.251924
"Chuxiong urban area","China",28,40.25,12.25,3.69570899538924,236688,347389,110701,3.9115880957156,8453.14285714286,8630.78260869565,110.658440303159,"Contained",101.528068,25.045532
"Nongan urban area","China",251.875,256.5625,4.6875,0.184563779125785,380921,346259,-34662,-0.94951293198282,1512.34143920596,1349.60876979294,-135.234550804916,"Contained",125.184742,44.432889
"Xingning urban area","China",18.5,38.1875,19.6875,7.51645831706497,184398,344937,160539,6.46291607535115,9967.45945945946,9032.7201309329,122.63375254611,"Contained",115.73111,24.13663
"Hebi urban area","China",107.875,113.75,5.875,0.531707658653571,323910,342894,18984,0.571181678222372,3002.64194669757,3014.45274725275,309.471133586178,"Contained",114.297273,35.747225
"Lianjiang urban area","China",60.5,85.875,25.375,3.56455359762031,237430,341881,104451,3.71317683085665,3924.46280991736,3981.14701601164,242.936879493734,"Contained",119.539704,26.197364
"Yutian urban area","China",98.0625,103.9375,5.875,0.583543283613413,315557,340778,25221,0.77188285027461,3217.91714467814,3278.6819001804,232.940803298838,"Contained",81.677418,36.857081
"Yishui urban area","China",48.25,58.25,10,1.90133206891952,302471,340441,37970,1.18958424491266,6268.82901554404,5844.48068669528,263.365815117198,"Contained",118.627918,35.79045
"Panzhihua urban area","China",39.0625,49.5625,10.5,2.4092809913191,257479,339883,82404,2.815540494808,6591.4624,6857.66456494325,127.420998980632,"Contained",101.718637,26.582347
"Yongcheng urban area","China",105.3125,110.3125,5,0.46492872107915,328014,339349,11335,0.340305588495119,3114.67299703264,3076.25155807365,441.111601235112,"Contained",116.4495,33.929291
"Iloilo urban area","Philippines",33.3125,39.375,6.0625,1.68603983267317,246951,337552,90601,3.17464651925638,7413.16322701689,8572.74920634921,66.9142724693988,"Spillover",122.5621063,10.7201501
"Suihua urban area","China",134.6875,141.75,7.0625,0.512384847398014,295741,337270,41529,1.32266813293972,2195.75684454756,2379.32980599647,170.061884466277,"Contained",126.968887,46.653845
"Anqiu urban area","China",85.875,90.4375,4.5625,0.519004726011917,380319,337167,-43152,-1.19709726602891,4428.75109170306,3728.17691776088,-105.730904708936,"Contained",119.218978,36.478494
"Shuozhou urban area","China",100.0625,117,16.9375,1.57608061416517,235376,336256,100880,3.63126187946457,2352.28981886321,2873.98290598291,167.897501982554,"Contained",112.432825,39.331595
"Xiaogan urban area","China",35.25,44.0625,8.8125,2.25651825654372,281765,336049,54284,1.77744780433671,7993.33333333333,7626.64397163121,162.340652862722,"Contained",113.957037,30.917766
"Chengyang urban area","China",72.25,78.5,6.25,0.833114219197517,317464,333934,16470,0.507070699814041,4393.96539792388,4253.93630573248,379.477838494232,"Contained",120.39631,36.307064
"Baoshan urban area","China",68.75,92.875,24.125,3.0534682371275,229469,333369,103900,3.80544126625302,3337.73090909091,3589.43741588156,232.194417709336,"Contained",99.161761,25.112046
"Xinghua urban area","China",27.5,68.1875,40.6875,9.50582146202791,171464,332702,161238,6.85337549420869,6235.05454545455,4879.22273143905,252.34436051055,"Contained",119.852541,32.910459
"Dali urban area","China",47.5,60.125,12.625,2.38495599774455,232646,331360,98714,3.60016549429657,4897.81052631579,5511.18503118503,127.894726178658,"Contained",100.267638,25.606486
"Chiang Mai urban area","Thailand",52.8125,66,13.1875,2.25409772610422,238475,330652,92177,3.32200605339642,4515.50295857988,5009.87878787879,143.067142562678,"Spillover",98.9817163,18.7060641
"Xingyang urban area","China",47.25,57.9375,10.6875,2.06005401974291,252537,330620,78083,2.73073857578144,5344.69841269841,5706.49406688242,136.873583238349,"Spillover",113.383221,34.787375
"Ku'erle urban area","China",110.375,121.3125,10.9375,0.949339933491748,216560,328985,112425,4.27009888534318,1962.03850509626,2711.88047398248,97.2870802757394,"Contained",86.174633,41.725891
"Shuangcheng urban area","China",158.25,163.5,5.25,0.326902457578288,290589,328834,38245,1.2441070820567,1836.2654028436,2011.21712538226,137.272846123676,"Contained",126.312745,45.383263
"Yima urban area","China",51,52.625,1.625,0.31414900977139,307260,328462,21202,0.669499788899653,6024.70588235294,6241.55819477435,76.6437128572776,"Spillover",111.87448,34.7474
"Zhaodong urban area","China",162.75,164.5,1.75,0.10701010616804,300061,328458,28397,0.90833241211068,1843.69278033794,1996.70516717325,61.626228122689,"Contained",125.961814,46.051126
"Kurume urban area","Japan",87.9375,97.875,9.9375,1.07640014152218,281007,328443,47436,1.57206623107255,3195.53091684435,3355.73946360153,209.492790285859,"Spillover",130.5083735,33.3192865
"Xinzhou urban area","China",67.625,75.6875,8.0625,1.13272007848021,280720,327820,47100,1.56316097726477,4151.12754158965,4331.230388109,171.178343949045,"Contained",112.734174,38.416663
"Manado urban area","Indonesia",39.9375,49.4375,9.5,2.1568663518832,235278,325338,90060,3.29405987154802,5891.15492957746,6580.79393173199,105.485232067511,"Contained",124.8420794,1.4748305
"Pinghu urban area","China",16,49.125,33.125,11.8711900709119,118637,323890,205253,10.5650173347448,7414.8125,6593.18066157761,161.386191675639,"Contained",121.015142,30.677233
"Takamatsu urban area","Japan",122.75,130.75,8,0.633370725713058,278360,323652,45292,1.51895689071194,2267.69857433809,2475.34990439771,176.631634725779,"Spillover",134.046574,34.3427879
"Jiyuan urban area","China",87.4375,107.25,19.8125,2.0633824156303,258050,320572,62522,2.19324089648574,2951.25089349535,2989.01631701632,316.888455263747,"Contained",112.601919,35.067243
"Hezhou urban area","China",44.4375,69.75,25.3125,4.6115072261126,187426,319973,132547,5.49414329959383,4217.74402250352,4587.42652329749,190.969995548749,"Contained",111.566694,24.403582
"Weitang urban area","China",18.25,71.625,53.375,14.6516149924639,104565,319346,214781,11.811767787864,5729.58904109589,4458.58289703316,248.508946322068,"Contained",120.649342,31.463476
"Neijiang urban area","China",29.3125,38.4375,9.125,2.74725481850943,277042,316716,39674,1.34735971410501,9451.32622601279,8239.76585365854,229.999495891516,"Contained",105.058433,29.580229
"Baguio urban area","Philippines",34.5625,46.4375,11.875,2.99742524624311,222164,316654,94490,3.60748442628955,6427.89150090416,6818.92866756393,125.674674568737,"Spillover",120.5960071,16.4023332
"Feixian urban area","China",58.75,62.1875,3.4375,0.570248380163445,299450,316493,17043,0.555071502079507,5097.02127659574,5089.33467336683,201.695710849029,"Contained",117.977325,35.265961
"Dujiangyan urban area","China",24.75,49.25,24.5,7.12309286317378,189656,316489,126833,5.25414393448805,7662.86868686869,6426.17258883249,193.167393344004,"Contained",103.646912,30.988435
"Linhe urban area","China",80.875,92.375,11.5,1.33839363034141,269975,316430,46455,1.60039821593207,3338.17619783617,3425.49391069012,247.551393821978,"Contained",107.363919,40.751187
"Chuzhou urban area","China",21.125,43.875,22.75,7.5826013155587,202119,316322,114203,4.58086405962459,9567.76331360947,7209.61823361823,199.206675831633,"Spillover",118.328322,32.253425
"Banda Aceh urban area","Indonesia",64.125,79.5625,15.4375,2.18051901137579,217711,315826,98115,3.79029605015537,3395.10331384016,3969.53338570306,157.340875503236,"Spillover",95.3237559,5.5482904
"Yueping urban area","China",46.5625,57.75,11.1875,2.17662887316046,247214,314972,67758,2.45186973707749,5309.29395973154,5454.06060606061,165.109654948493,"Contained",121.4347858,29.2976344
"Tancheng urban area","China",51.4375,58.1875,6.75,1.24066393117806,296307,314179,17872,0.587386470284165,5760.52490886999,5399.42427497315,377.685765443151,"Contained",118.367215,34.613586
"Longcheng urban area","China",90,91.75,1.75,0.192763716885395,323944,313990,-9954,-0.311608719895022,3599.37777777778,3422.23433242507,-175.808720112518,"Contained",120.413376,41.576749
"Fengcheng urban area","China",31.75,44.9375,13.1875,3.53484026740371,205186,313966,108780,4.34544354811763,6462.55118110236,6986.72600834492,121.230924802353,"Contained",115.771094,28.159142
"Rugao urban area","China",16.6875,37.5,20.8125,8.43363053416237,179626,313405,133779,5.72402097628318,10764.1048689139,8357.46666666667,155.573744758146,"Contained",120.574946,32.370557
"Nakhon Ratchasima urban area","Thailand",87.25,99.375,12.125,1.30973295850841,237952,313283,75331,2.78855172344402,2727.2435530086,3152.53333333333,160.956312806149,"Spillover",102.083652,14.9738493
"Alor Setar urban area","Malaysia",79.875,86.3125,6.4375,0.77812697906216,215537,313279,97742,3.81041925406194,2698.42879499218,3629.59015206372,65.8621677477441,"Spillover",100.3678178,6.1248
"Shahe urban area","China",62.25,69,6.75,1.03479706613998,281373,310706,29333,0.996592596884376,4520.04819277108,4502.98550724638,230.116251321038,"Contained",114.503335,36.854922
"Qui Nhon urban area","Vietnam",27.4375,34.375,6.9375,2.27978747076386,200778,310582,109804,4.45903653248901,7317.64920273349,9035.11272727273,63.1807584423154,"Spillover",109.2196634,13.7829673
"Huazhou urban area","China",27.0625,31.5625,4.5,1.55009831045057,230315,310150,79835,3.02080904791844,8510.48498845266,9826.53465346535,56.3662554017661,"Contained",110.639569,21.664044
"Yongchuan urban area","China",17.8125,40.0625,22.25,8.44294841771765,135257,309979,174722,8.6468782447179,7593.37543859649,7737.38533541342,127.345154016094,"Contained",105.927376,29.356117
"Bencheng urban area","China",133.9375,228.4375,94.5,5.4839832293245,289498,309479,19981,0.669650699773518,2161.44097060196,1354.76443228454,4729.49301836745,"Contained",115.5843737,32.6387731
"Suining urban area","China",29.25,47.1875,17.9375,4.89870091794481,216687,308815,92128,3.60639270837066,7408.10256410256,6544.4238410596,194.701936436263,"Contained",105.592898,30.532847
"Viangchan urban area","Laos",47.8125,96.9375,49.125,7.32355163877873,134290,307044,172754,8.62147455924598,2808.67973856209,3167.44294003868,284.363893166005,"Fragmented",102.6331035,17.9757058
"Gaozhou urban area","China",28.25,31.5625,3.3125,1.11493204658624,266146,305841,39695,1.39991154871193,9421.09734513274,9690.01188118812,83.4487970777176,"Contained",110.853302,21.917982
"Oita urban area","Japan",99.9375,106,6.0625,0.590678702497304,267361,305626,38265,1.34660947347177,2675.28205128205,2883.2641509434,158.43460081014,"Spillover",131.609272,33.2395578
"Yuzhou urban area","China",32.5625,41.4375,8.875,2.43953077477473,243852,305285,61433,2.27227445229225,7488.73704414587,7367.3604826546,144.466329171618,"Contained",113.488478,34.140701
"Bago urban area","Myanmar",63.875,64.0625,0.1875,0.0293155042429799,242840,304817,61977,2.29911957498413,3801.80039138943,4758.11902439024,3.02531584297401,"Contained",96.4663286,17.3220711
"Wuchang urban area","China",157.3125,159.4375,2.125,0.134267287984905,303653,304171,518,0.0170458643604549,1930.25347636075,1907.77577420619,4102.3166023166,"Contained",114.316422,30.554363
"Lingcheng urban area","China",97.75,99.6875,1.9375,0.196463678623857,280452,303985,23533,0.809012671504644,2869.07416879795,3049.37931034483,82.3311944928398,"Contained",116.576092,37.335794
"Yanzhou urban area","China",35.3125,45.9375,10.625,2.66534930674968,248883,303876,54993,2.01642887150328,7048.01415929204,6614.98775510204,193.206408088302,"Contained",116.783834,35.553144
"Wuzhong urban area","China",7.75,36,28.25,16.6004106169601,131633,303215,171582,8.7022642023475,16984.9032258065,8422.63888888889,164.644310009208,"Contained",106.198394,37.997461
"Liupanshui urban area","China",17.75,20.5625,2.8125,1.48170513491787,205051,302615,97564,3.96875800064222,11552.1690140845,14716.8389057751,28.827231355828,"Contained",104.830359,26.592666
"Huanghua urban area","China",188.8125,223.1875,34.375,1.68664355452988,252132,302295,50163,1.83106820166954,1335.35650446872,1354.444133296,685.266032733289,"Contained",117.330048,38.371383
"Niushan urban area","China",85.8125,93.3125,7.5,0.841414073654295,329236,301808,-27428,-0.866065509739639,3836.69045884924,3234.37910247823,-273.443196733265,"Contained",118.743257,34.521105
"Potou urban area","China",89.5,91.3125,1.8125,0.200691759173741,280959,301508,20549,0.708375176874435,3139.20670391061,3301.9356605065,88.2038055379824,"Contained",110.455332,21.244721
"Yuxi urban area","China",46,72.375,26.375,4.63646869184731,181862,300045,118183,5.13430379177882,3953.52173913043,4145.69948186528,223.170845214625,"Contained",102.527197,24.347324
"Fuzhou urban area","China",36,46.375,10.375,2.56475387526793,226829,299817,72988,2.82903675846919,6300.80555555556,6465.05660377359,142.146654244533,"Contained",119.296494,26.074508
"Shihezi urban area","China",56,84.375,28.375,4.18437143417202,422900,299676,-123224,-3.385696400644,7551.78571428571,3551.71555555556,-230.27170031812,"Contained",86.080602,44.306097
"Kuala Terengganu urban area","Malaysia",73.75,75.5,1.75,0.234791815645157,211812,298654,86842,3.4955739868323,2872.02711864407,3955.6821192053,20.1515395776237,"Contained",103.1370142,5.329624
"Yunfu urban area","China",45.1875,64.875,19.6875,3.68260629299519,215022,297832,82810,3.31154255314601,4758.4398340249,4590.85934489403,237.743026204565,"Spillover",112.044491,22.915094
"Changge urban area","China",64.8125,66.75,1.9375,0.294992361582428,273332,297745,24413,0.859172299323967,4217.27290260366,4460.59925093633,79.3634538975136,"Contained",113.819888,34.194136
"Pohang urban area","South Korea",55.3125,63.625,8.3125,1.40992247963361,261236,297278,36042,1.30082318686642,4722.91073446328,4672.34577603143,230.633705121802,"Contained",129.3434808,36.0190178
"Kaiyuan urban area","China",109.1875,116.0625,6.875,0.612490611858539,278182,296934,18752,0.654475553746516,2547.74585002862,2558.39741518578,366.627559726962,"Spillover",103.267143,23.714316
"Long Xuyen urban area","Vietnam",18.25,24.3125,6.0625,2.90978597576866,182927,296004,113077,4.93055665277607,10023.397260274,12174.971722365,53.6139091061843,"Spillover",105.4185406,10.3759416
"Leizhou urban area","China",35.375,42.125,6.75,1.7616983553063,229972,295579,65607,2.54154609485922,6500.97526501767,7016.71216617211,102.88536284238,"Contained",110.096586,20.914179
"Shizilu urban area","China",65.6875,70.75,5.0625,0.745201789714931,301375,294203,-7172,-0.240563493547414,4588.01141769743,4158.34628975265,-705.870050195204,"Contained",109.184691,22.253586
"Xianning urban area","China",29.125,64.125,35,8.21217954070273,202050,292949,90899,3.78469575057771,6937.33905579399,4568.40545808967,385.042739744112,"Contained",114.322439,29.841438
"Tianshui urban area","China",45.9375,60.625,14.6875,2.8130965463091,218076,292844,74768,2.99184679861276,4747.23265306122,4830.41649484536,196.440990798202,"Spillover",105.724947,34.580864
"Zaoyang urban area","China",101,103.25,2.25,0.220570048621769,297759,291535,-6224,-0.211020710432136,2948.10891089109,2823.58353510896,-361.503856041131,"Contained",112.771959,32.128818
"Xinle urban area","China",55.3125,69.375,14.0625,2.29112872018895,239008,291238,52230,1.99609862742784,4321.04858757062,4198.02522522522,269.241815048823,"Contained",114.684014,38.343296
"Huozhou urban area","China",105.75,115.875,10.125,0.918534935940403,267616,290616,23000,0.827905245747317,2530.64775413712,2508.01294498382,440.217391304348,"Spillover",111.755398,36.568931
"Luoding urban area","China",33.0625,39.625,6.5625,1.82709606033939,220432,289958,69526,2.7793922826054,6667.13043478261,7317.55205047319,94.3891493829646,"Contained",111.570011,22.768595
"Shanwei urban area","China",32.125,37.125,5,1.45707385990323,228248,289882,61634,2.41921122612178,7104.99610894942,7808.26936026936,81.1240549047604,"Contained",115.375159,22.786186
"Liling urban area","China",22.0625,28.125,6.0625,2.45750616022541,234559,289263,54704,2.11841806770207,10631.5694050991,10284.9066666667,110.823705761919,"Contained",113.496999,27.646096
"Wendeng urban area","China",66.75,82.6875,15.9375,2.16422835970715,253492,289056,35564,1.32153789897075,3797.6329588015,3495.7641723356,448.135755258126,"Contained",122.057941,37.193886
"Sinuiju urban area","North Korea",29.5,32.4375,2.9375,0.953768633508701,258938,288876,29938,1.10009583381159,8777.5593220339,8905.61849710983,98.1194468568375,"Spillover",124.4489192,40.0823213
"Lhasa urban area","China",75.1875,105.375,30.1875,3.43301739262971,213038,288163,75125,3.06663902555499,2833.42310889443,2734.64294187426,401.830282861897,"Spillover",91.17211,29.652491
"Hejin urban area","China",77.8125,90.0625,12.25,1.47275762865317,249071,286256,37185,1.40121140540911,3200.9124497992,3178.41498959056,329.433911523464,"Contained",110.712063,35.596383
"Qidong urban area","China",23.1875,45.1875,22,6.89968827071877,163216,285216,122000,5.74044054353427,7038.96495956873,6311.83402489627,180.327868852459,"Contained",121.655432,31.793278
"Changyi urban area","China",131.9375,134.9375,3,0.225086767442907,317116,284701,-32415,-1.07248869395604,2403.53197536712,2109.87308939324,-92.5497454881999,"Contained",119.398525,36.85882
"Liyang urban area","China",23.375,66.8125,43.4375,11.0735392103336,134857,283460,148603,7.71143921152095,5769.28342245989,4242.61927034612,292.305673505918,"Contained",119.484211,31.416911
"Yingde urban area","China",54.1875,79.8125,25.625,3.94824945612514,178047,283331,105284,4.75528515802992,3285.75778546713,3549.95771339076,243.389308916834,"Contained",113.401702,24.206986
"Zhongxiang urban area","China",90.375,95.6875,5.3125,0.572834386710888,265717,281633,15916,0.583425055820216,2940.16044260028,2943.25800130634,333.78361397336,"Contained",112.588121,31.16782
"Linqu urban area","China",45.6875,53.6875,8,1.62664271550632,257165,281312,24147,0.901504003617517,5628.78248974008,5239.80442374854,331.304095746884,"Contained",118.542982,36.512506
"Fenghua urban area","China",62.4375,110.9375,48.5,5.91641849496447,211514,280668,69154,2.86920373228399,3387.61161161161,2529.96507042254,701.333256210776,"Contained",121.406995,29.655143
"Zhangye urban area","China",22.125,38.375,16.25,5.66143653705465,198517,277879,79362,3.42030217884221,8972.5197740113,7241.14657980456,204.757944608251,"Contained",100.449818,38.925875
"Meishan urban area","China",27.0625,48.9375,21.875,6.10293234473211,155165,276886,121721,5.96214060561427,5733.57967667437,5657.95146871009,179.714264588691,"Contained",103.848538,30.07544
